osm_id,name,latitude,longitude,city,state,country,address,description,wikidata,tags
245623398,Gauribidanuru,13.6114523,77.5167805,,Karnataka,India,,Gauribidanur is a taluk situated in Chikkaballapur district in the Indian state of Karnataka.,Q920387,"{'int_name': 'Gowribidanur', 'name': 'Gauribidanuru', 'name:kn': 'ಗೌರೀಬಿದನೂರು', 'name:kn:iso15919': 'Gaurībidanūru', 'name:ml': 'ഗൗരിബിദനൂരു', 'name:te': 'గౌరీబిదనూరు', 'place': 'town', 'population': '30000', 'postal_code': '561208', 'tourism': 'attraction', 'wikidata': 'Q920387', 'wikimedia_commons': 'Category:Gauribidanur', 'wikipedia': 'en:Gauribidanur'}"
248614815,Rajarajeshwari Arch,12.9359565,77.5183096,Bengaluru,Karnataka,India,,,,"{'name': 'Rajarajeshwari Arch', 'tourism': 'attraction'}"
320647357,Chickpet Cross,12.9680027,77.578642,Bengaluru,Karnataka,India,,The junction of Doddapet and Chikkapet is said to be the heart of Bangalore Pete that was founded by Kempe Gowda in 1537 AD,,"{'description': 'The junction of Doddapet and Chikkapet is said to be the heart of Bangalore Pete that was founded by Kempe Gowda in 1537 AD', 'junction': 'yes', 'name': 'Chickpet Cross', 'name:kn': 'ಚಿಕ್ಕಪೇಟಿ ಕ್ರಾಸ್', 'tourism': 'attraction'}"
339933894,Guards' Barracks,15.3149215,76.4696198,Hosapete,Karnataka,India,,,,"{'historic': 'ruins', 'name': ""Guards' Barracks""}"
339933896,Underground Chamber,15.315909,76.4699225,Hosapete,Karnataka,India,,,,"{'historic': 'ruins', 'name': 'Underground Chamber'}"
339934121,Horse Stables,15.3174241,76.469756,Hosapete,Karnataka,India,,,,"{'historic': 'ruins', 'name': 'Horse Stables', 'name:kn': 'ಕುದುರೆ ಕೊಟ್ಟಿಗೆ'}"
340356076,Chakra Tirtha,15.3361789,76.4678475,Hosapete,Karnataka,India,,,,"{'historic': 'archaeological_site', 'name': 'Chakra Tirtha', 'name:kn': 'ಚಕ್ರ ತೀರ್ಥ'}"
340371584,Bhojanasala,15.3138568,76.4686333,Hosapete,Karnataka,India,,,,"{'historic': 'ruins', 'name': 'Bhojanasala', 'name:kn': 'ಭೋಜನಶಾಲೆ'}"
347241683,Lalbagh Glasshouse,12.9498004,77.5865608,Bengaluru,Karnataka,India,,,,"{'name': 'Lalbagh Glasshouse', 'name:kn': 'ಲಾಲ್ ಬಾಗ್ ಗಾಜಿನ ಮನೆ', 'tourism': 'attraction'}"
390877530,Dubare Elephant Camp,12.3710485,75.9051815,,Karnataka,India,,,,"{'name': 'Dubare Elephant Camp', 'name:kn': 'ದುಬಾರೆ ಆನೆ ಶಿಬಿರ', 'tourism': 'attraction'}"
411451909,Ranganathittu Bird Sanctuary,12.4238524,76.6553081,,Karnataka,India,,"Ranganathittu Bird Sanctuary, is a bird sanctuary in the Mandya District of Karnataka in India. It is the largest bird sanctuary in the state, 40 acres (16 ha) in area, and comprises six islets on the banks of the Kaveri river. The sanctuary has been designated on 15 February 2022 as a protected Ramsar site since 2022.",Q3846171,"{'name': 'Ranganathittu Bird Sanctuary', 'name:kn': 'ರಂಗನತಿಟ್ಟು_ಪಕ್ಷಿಧಾಮ\u200e', 'tourism': 'attraction', 'wikidata': 'Q3846171', 'wikipedia': 'en:Ranganathittu Bird Sanctuary'}"
429899977,Mahatma Gandhi Statue,12.9773498,77.5997422,Bengaluru,Karnataka,India,,,,"{'historic': 'memorial', 'memorial': 'statue', 'name': 'Mahatma Gandhi Statue', 'name:kn': 'ಮಹಾತ್ಮ ಗಾಂಧಿ ಪ್ರತಿಮೆ', 'subject': 'Mahatma Gandhi', 'subject:wikidata': 'Q1001'}"
442437989,Krishnarajapuram Hanging Bridge,13.0010382,77.6778627,Bengaluru,Karnataka,India,,,,"{'name': 'Krishnarajapuram Hanging Bridge', 'tourism': 'attraction'}"
445607292,Jamsetji Tata Statue,13.0173685,77.5671271,Bengaluru,Karnataka,India,,,,"{'historic': 'memorial', 'memorial': 'statue', 'name': 'Jamsetji Tata Statue', 'subject': 'Jamsetji Tata', 'subject:wikidata': 'Q320109'}"
447879872,Old Temple,13.4171621,77.6832185,,Karnataka,India,,,,"{'historic': 'ruins', 'name': 'Old Temple'}"
447879882,Old Temple,13.4193629,77.6899806,,Karnataka,India,,,,"{'historic': 'ruins', 'name': 'Old Temple'}"
542404091,Kaveri Kala Kuteera,12.2918606,76.6321792,Mysuru,Karnataka,India,,,,"{'name': 'Kaveri Kala Kuteera', 'name:kn': 'ಕಾವೇರಿ ಕಾಲ ಕುಟೀರ', 'tourism': 'museum'}"
574314073,Shivaji Statue,13.0067586,77.5785939,Bengaluru,Karnataka,India,,,,"{'artwork_type': 'statue', 'historic': 'monument', 'name': 'Shivaji Statue', 'name:kn': 'ಶಿವಾಜಿ ಪ್ರತಿಮೆ', 'tourism': 'artwork'}"
638990371,Sri M.S. Ramaiah tomb,13.0383546,77.5542487,Bengaluru,Karnataka,India,,,,"{'historic': 'memorial', 'name': 'Sri M.S. Ramaiah tomb', 'wheelchair': 'no'}"
647795498,Jain Temples,13.2089597,75.9948839,,Karnataka,India,,,,"{'amenity': 'place_of_worship', 'historic': 'yes', 'name': 'Jain Temples', 'name:kn': 'ಜೈನ ಬಸದಿಗಳು', 'religion': 'jain'}"
647795513,Kedareswara Temple,13.209021,75.9986303,,Karnataka,India,,,,"{'amenity': 'place_of_worship', 'historic': 'yes', 'name': 'Kedareswara Temple', 'name:kn': 'ಕೇದಾರೇಶ್ವರ ದೇವಾಲಯ', 'religion': 'hindu'}"
663561820,Queen Victoria,12.9768621,77.598791,Bengaluru,Karnataka,India,,"The Statue of Queen Victoria, Bangalore, is located at Queen's Park, next to Cubbon Park, Bangalore Cantonment, at the junction of 3 roads, at the border between the Cantonment and the Bangalore Pete. The statue was unveiled on 5 February 1906 by the then Prince of Wales, George Frederick Ernest Albert. The statue was raised out of funds raised by the residents of the Bangalore Civil and Military Station and contributions made by Krishna Raja Wadiyar IV, the Maharaja of Mysore. This Statue of Queen Victoria is one of the five of the original 50 statues of Queen Victoria which were installed in British India, to still stand at its original location. The statue has blossoms of jacaranda falling around. On the other end of Queen's Park is the Statue of King Edward VII.",Q22116770,"{'artist_name': 'Thomas Brock', 'height': '3.35', 'historic': 'memorial', 'inscription': 'VICTORIA QUEEN OF GREAT BRITAIN AND IRELAND AND EMPRESS OF INDIA 1837–1901 ERECTED BY PUBLIC SUBSCRIPTION 1906', 'inscription:url': 'https://en.wikipedia.org/wiki/Statue_of_Queen_Victoria,_Bangalore#Inscriptions', 'material': 'granite', 'memorial': 'statue', 'name': 'Queen Victoria', 'name:kn': 'ವಿಕ್ಟೋರಿಯಾ ರಾಣಿ ಪ್ರತಿಮೆ', 'start_date': '1906-02-05', 'subject': 'Queen Victoria', 'subject:wikidata': 'Q9439', 'wikidata': 'Q22116770', 'wikimedia_commons': 'Category:Statue of Queen Victoria, Bangalore', 'wikipedia': 'en:Statue of Queen Victoria, Bangalore'}"
663561823,Statue of Edward VII,12.9803462,77.5971833,Bengaluru,Karnataka,India,,"The statue of Edward VII in Bangalore is located at Queen's Park, next to Cubbon Park, Bangalore Cantonment, at the junction of Queen's Road and Cubbon Road. The statue was unveiled in November 1919 by the then Viceroy and Governor-General of India, Frederic John Napier, Baron Chelmsford. The statue was raised out of funds raised by the residents of the Bangalore Civil and Military Station. The Statue of King Edward VII is one of the few of the original statues which were installed in British India, to still stand at its original location. The statue rises above a flowering frangipani tree. On the other end of Queen's Park is the Statue of Queen Victoria, Bangalore. The statue was designed and sculpted by Leonard Jennings of Chelsea, London.",Q22330294,"{'artist:wikidata': 'Q52156232', 'artist_name': 'Leonard Jennings', 'historic': 'memorial', 'inscription': 'EDWARD VII\nKING OF GREAT BRITAIN AND IRELAND\nAND\nEMPEROR OF INDIA\n 1901–1910\nERECTED BY PUBLIC SUBSCRIPTION\n1914', 'memorial': 'statue', 'name': 'Statue of Edward VII', 'start_date': '1919-28-11', 'subject': 'King Edward VII', 'subject:kn': 'ರಾಜ ೭ನೆ ಎಡ್ವರ್ಡ್', 'subject:wikidata': 'Q20875', 'wikidata': 'Q22330294'}"
663564845,Seshadri Iyer Statue,12.9735236,77.5903612,Bengaluru,Karnataka,India,,,,"{'artist_name': 'Robert Colton', 'height': '6.5', 'historic': 'memorial', 'memorial': 'statue', 'min_height': '4', 'name': 'Seshadri Iyer Statue', 'name:kn': 'ಶೇಷಾದ್ರಿ ಅಯರ್ ಪ್ರತಿಮೆ', 'start_date': '1913', 'subject': 'K. Seshadri Iyer', 'subject:wikidata': 'Q6324004'}"
663941105,Chamarajendra Wodeyar Statue,12.9752578,77.5932697,Bengaluru,Karnataka,India,,,,"{'historic': 'memorial', 'memorial': 'statue', 'name': 'Chamarajendra Wodeyar Statue', 'name:kn': 'ಚಾಮರಾಜೇಂದ್ರ ಒಡೆಯರ್', 'subject': 'Chamarajendra Wadiyar X', 'subject:wikidata': 'Q3666053'}"
665062581,Kempe Gowda Statue,12.9662051,77.5871517,Bengaluru,Karnataka,India,,,,"{'historic': 'memorial', 'memorial': 'statue', 'name': 'Kempe Gowda Statue', 'name:kn': 'ಕೆಂಪೆಗೌಡ ಪ್ರತಿಮೆ', 'subject': 'Kempe Gowda I', 'subject:wikidata': 'Q6387049'}"
665062640,Kempe Gowda Tower,12.9677758,77.5889307,Bengaluru,Karnataka,India,,,,"{'historic': 'monument', 'name': 'Kempe Gowda Tower', 'name:etymology:wikidata': 'Q6387049', 'name:kn': 'ಕೆಂಪೇಗೌಡ ಸ್ಮಾರಕ', 'tourism': 'attraction', 'wheelchair': 'no'}"
665067315,Freedom Park,12.9782425,77.5825221,Bengaluru,Karnataka,India,,,,"{'name': 'Freedom Park', 'tourism': 'attraction'}"
665072890,Mark Cubbon Statue,12.9763165,77.5942806,Bengaluru,Karnataka,India,,,,"{'historic': 'memorial', 'memorial': 'statue', 'name': 'Mark Cubbon Statue', 'name:kn': 'ಮಾರ್ಕ್ ಕಬ್ಬನ್ ಪುತ್ತಳಿ', 'subject': 'Mark Cubbon', 'subject:wikidata': 'Q6767214'}"
666631038,Ranganatha Temple,12.4248759,76.67927,,Karnataka,India,,,,"{'historic': 'monument', 'name': 'Ranganatha Temple', 'name:kn': 'ರಂಗನಾಥ ದೇವಾಲಯ'}"
666715670,Tipu Sultan's Death Place Memorial,12.4251279,76.6879016,,Karnataka,India,,,,"{'historic': 'monument', 'name': ""Tipu Sultan's Death Place Memorial""}"
676875271,Raghunatha Temple,15.3245174,76.4878101,Hosapete,Karnataka,India,,,,"{'historic': 'monument', 'name': 'Raghunatha Temple', 'name:kn': 'ರಘುನಾಥ ದೇವಸ್ಧಾನ', 'name:ru': 'храм. закат 1 день'}"
676875322,King's Balance,15.3409232,76.4742222,Hosapete,Karnataka,India,,,,"{'historic': 'monument', 'name': ""King's Balance"", 'tourism': 'attraction'}"
694501678,Jod Gumbad,16.8253194,75.7122134,Vijayapura,Karnataka,India,,,,"{'historic': 'monument', 'name': 'Jod Gumbad', 'name:kn': 'ಜೋಡ ಗುಮ್ಮಟ್', 'tourism': 'attraction'}"
694501718,Upli Buruj,16.8325262,75.711653,Vijayapura,Karnataka,India,,,,"{'historic': 'monument', 'name': 'Upli Buruj', 'name:kn': 'ಉಪ್ಲಿ ಬುರುಜು', 'tourism': 'attraction'}"
707020711,Archaelogical Museum,15.3073753,76.4772089,Hosapete,Karnataka,India,,,,"{'fee': 'yes', 'name': 'Archaelogical Museum', 'name:kn': 'ಕಮಲಾಪುರ ಪ್ರಾಚ್ಯವಸ್ತು ಸಂಗ್ರಹಾಲಯ', 'opening_hours': 'Sa-Th 09:00-18:00', 'tourism': 'museum', 'wheelchair': 'yes'}"
718385423,World War I Memorial,12.9716496,77.6068577,Bengaluru,Karnataka,India,,,,"{'alt_name': 'Madras Sappers Memorial', 'historic': 'memorial', 'material': 'stone', 'memorial': 'war_memorial', 'name': 'World War I Memorial', 'tourism': 'attraction', 'wheelchair': 'yes'}"
755456486,Abbi Falls,12.4570242,75.715671,,Karnataka,India,,,,"{'name': 'Abbi Falls', 'name:kn': 'ಅಬ್ಬೆ ಜಲಪಾತ', 'tourism': 'attraction', 'waterway': 'waterfall'}"
818755784,Doddamakali Fishing Camp,12.3089426,77.2169022,,Karnataka,India,,,,"{'name': 'Doddamakali Fishing Camp', 'tourism': 'attraction'}"
836029598,Foujdar Bore Gowda's Samadhi,13.3086863,76.9466108,,Karnataka,India,,,,"{'historic': 'memorial', 'name': ""Foujdar Bore Gowda's Samadhi"", 'religion': 'hindu'}"
838536660,Iruppu Falls,11.9667954,75.9839484,,Karnataka,India,,,,"{'alt_name': 'Iruppu Falls;Lakshmana Tirtha Falls', 'name': 'Iruppu Falls', 'name:en': 'Irupu Falls', 'name:kn': 'ಇರ್ಪು ಜಲಪಾತ', 'tourism': 'attraction', 'waterway': 'waterfall'}"
924297864,Hanumanagundi Falls,13.2581667,75.1622147,,Karnataka,India,,,,"{'alt_name': 'Seethanabbe Falls', 'name': 'Hanumanagundi Falls', 'name:kn': 'ಹನುಮನ ಗುಂಡಿ ಜಲಪಾತ', 'tourism': 'attraction', 'waterway': 'waterfall'}"
977472885,Purandara Mandapa,15.3419935,76.4724375,Hosapete,Karnataka,India,,,,"{'historic': 'ruins', 'name': 'Purandara Mandapa', 'name:kn': 'ಪುರಂದರ ಮಂಟಪ'}"
977478684,Photo Museum,15.3340708,76.4663566,Hosapete,Karnataka,India,,,,"{'name': 'Photo Museum', 'opening_hours': 'Tu-Su', 'tourism': 'museum'}"
980400748,Ranga Mantapa,15.3337911,76.466785,Hosapete,Karnataka,India,,,,"{'historic': 'ruins', 'name': 'Ranga Mantapa', 'name:kn': 'ರಂಗ ಮಂಟಪ'}"
1115063808,Kalyani Fort,17.8842558,76.9482626,,Karnataka,India,,"Basavakalyana fort, earlier known as Kalyana fort, is located in Bidar district in the Indian state of Karnataka. Its historic importance is dated to the 10th century. The capital of Chalukyas was also shifted from Manyakheta to Kalyana in the 10th century. The fort, integral to the Basavakalyana town, is also famous as Karmabhoomi of Basavanna and hundreds of other Sharanas.",Q4866285,"{'historic': 'castle', 'name': 'Kalyani Fort', 'name:kn': 'ಕಲ್ಯಾಣಿ ಕೋಟೆ', 'wikidata': 'Q4866285', 'wikipedia': 'en:Basavakalyana Fort'}"
1148814958,Open Air Sculpture Museum,15.3196025,76.4697289,Hosapete,Karnataka,India,,,,"{'fee': 'no', 'name': 'Open Air Sculpture Museum', 'tourism': 'museum'}"
1148814960,Temple Elephant Bathing,15.3369431,76.4581162,Hosapete,Karnataka,India,,,,"{'name': 'Temple Elephant Bathing', 'opening_hours': '08:00-08:30', 'tourism': 'attraction'}"
1153369645,Narasimharaja Wodeyar,12.3082788,76.6558257,Mysuru,Karnataka,India,,,,"{'historic': 'monument', 'name': 'Narasimharaja Wodeyar', 'name:etymology:wikidata': 'Q15954240', 'name:kn': 'ನರಸಿಂಹರಾಜ ಒಡೆಯರ್', 'name:ml': 'നരസിംഹരാജ വോഡയാർ'}"
1339369591,Gubbi Veeranna's Samadhi,13.3095069,76.9449667,,Karnataka,India,,,,"{'historic': 'memorial', 'name': ""Gubbi Veeranna's Samadhi"", 'name:kn': 'ಗುಬ್ಬಿ ವೀರಣ್ಣನವರ ಸಮಾಧಿ'}"
1373719196,Rani Chennamma Circle,15.3502222,75.1376472,Hubballi,Karnataka,India,,,,"{'designation': 'Rani Chennamma Circle', 'historic': 'memorial', 'memorial': 'statue', 'name': 'Rani Chennamma Circle', 'name:kn': 'ರಾಣಿ ಚೆನ್ನಮ್ಮ ವೃತ್ತ'}"
1391983932,Sathodi Waterfalls,14.9504732,74.5841747,,Karnataka,India,,,,"{'name': 'Sathodi Waterfalls', 'name:kn': 'ಸಾತೋಡಿ ಜಲಪಾತ', 'tourism': 'attraction'}"
1427080593,Band Tower,15.3169258,76.4670381,Hosapete,Karnataka,India,,,,"{'historic': 'ruins', 'name': 'Band Tower'}"
1427115927,Muslim Tombs,15.3105922,76.4489006,Hosapete,Karnataka,India,,,,"{'historic': 'ruins', 'name': 'Muslim Tombs'}"
1427163243,Malik-e-Maidan cannon,16.8317219,75.7089864,Vijayapura,Karnataka,India,,,,"{'name': 'Malik-e-Maidan cannon', 'name:kn': 'ಮಾಲಿಕ್-ಎ-ಮೈದಾನ್', 'tourism': 'attraction'}"
1437217763,Gandhi Bhavan,12.987884,77.5802023,Bengaluru,Karnataka,India,,,,"{'historic': 'memorial', 'name': 'Gandhi Bhavan', 'name:kn': 'ಗಾಂಧಿ ಭವನ'}"
1454118462,Sadashivagad Fort,14.8462755,74.1317832,,Karnataka,India,,,,"{'historic': 'castle', 'name': 'Sadashivagad Fort', 'name:kn': 'ಸದಾಶಿವಗಡ'}"
1463462102,Dr. Rajkumar Samadhi,13.0183608,77.5324003,Bengaluru,Karnataka,India,,,,"{'historic': 'memorial', 'name': 'Dr. Rajkumar Samadhi', 'name:kn': 'ಡಾ|| ರಾಜ್ಕುಮಾರ್ ಸಮಾದಿ'}"
1463785482,Kumaravyasa Stambha,15.4316278,75.6271379,,Karnataka,India,,,,"{'historic': 'monument', 'name': 'Kumaravyasa Stambha', 'name:kn': 'ಕುಮಾರವ್ಯಾಸ ಸ್ತಂಭ'}"
1467576469,Museum and Cultural Hall,16.1623332,75.6633199,Bagalkote,Karnataka,India,,,,"{'name': 'Museum and Cultural Hall', 'tourism': 'museum'}"
1467794463,Rajkumar Statue,12.9335779,77.5657133,Bengaluru,Karnataka,India,,,,"{'historic': 'memorial', 'name': 'Rajkumar Statue'}"
1473218475,Veera Sawarkar,15.4331938,75.6361864,,Karnataka,India,,,,"{'historic': 'memorial', 'name': 'Veera Sawarkar', 'name:kn': 'ವೀರ ಸಾವರ್ಕರ'}"
1473972559,Swami Vivekananda Statue,12.9478784,77.5679115,Bengaluru,Karnataka,India,,,,"{'historic': 'monument', 'name': 'Swami Vivekananda Statue', 'name:kn': 'ಸ್ವಾಮಿ ವಿವೇಕಾನಂದ'}"
1474865896,Mahatma Gandhi Smarak,15.8386222,74.5009426,Belagavi,Karnataka,India,,,,"{'historic': 'memorial', 'name': 'Mahatma Gandhi Smarak', 'name:kn': 'ಮಹಾತ್ಮ ಗಾಂಧಿ ಸ್ಮಾರಕ'}"
1483709815,Meer Sahib Store buidling,12.9693344,77.7501877,Bengaluru,Karnataka,India,,,,"{'historic': 'ruins', 'name': 'Meer Sahib Store buidling'}"
1575774542,Dr. B R Ambedkar Statue,15.3626106,75.1312652,Hubballi,Karnataka,India,,,,"{'historic': 'monument', 'name': 'Dr. B R Ambedkar Statue', 'name:kn': 'ಅಂಬೇಡ್ಕರ್ ಪ್ರತಿಮ', 'tourism': 'attraction'}"
1575774546,Mahatma Gandhi Statue,15.3609933,75.1270404,Hubballi,Karnataka,India,,,,"{'historic': 'monument', 'name': 'Mahatma Gandhi Statue', 'name:kn': 'ಮಹಾತ್ಮ ಗಾಂಧಿ ಪ್ರತಿಮೆ', 'tourism': 'attraction'}"
1589076219,Peninsular Gneiss National Monument,12.9491363,77.5893864,Bengaluru,Karnataka,India,,,,"{'historic': 'monument', 'name': 'Peninsular Gneiss National Monument', 'tourism': 'attraction'}"
1598552982,War Tank,12.9661566,77.6197515,Bengaluru,Karnataka,India,,Tank captured during war with Pakistan,,"{'historic': 'memorial', 'material': 'metal', 'memorial': 'tank', 'name': 'War Tank', 'note': 'Tank captured during war with Pakistan'}"
1610701156,Sangolli Rayanna,12.9800397,77.5713661,Bengaluru,Karnataka,India,,,,"{'historic': 'monument', 'monument': 'Statue', 'name': 'Sangolli Rayanna', 'name:kn': 'ಸಂಗೊಳ್ಳಿ ರಾಯಣ್ಣ', 'tourism': 'attraction', 'wheelchair': 'no'}"
1611745805,Sirimane Falls,13.3874783,75.1796832,,Karnataka,India,,,,"{'name': 'Sirimane Falls', 'name:kn': 'ಸಿರಿಮನೆ ಜಲಪಾತ', 'tourism': 'attraction', 'waterway': 'waterfall'}"
1614268619,Ameoba Bowling Alley,12.9331092,77.5851373,Bengaluru,Karnataka,India,,,,"{'leisure': 'bowling_alley', 'name': 'Ameoba Bowling Alley', 'sport': '9pin', 'tourism': 'attraction'}"
1617034268,Vanadurga Fort,16.631678,76.6933104,,Karnataka,India,,,,"{'historic': 'castle', 'name': 'Vanadurga Fort', 'name:kn': 'ವನದುರ್ಗ ಕೋಟೆ'}"
1632204429,Karkala Gomateshwara Statue,13.2037564,75.005566,,Karnataka,India,,,,"{'historic': 'monument', 'name': 'Karkala Gomateshwara Statue', 'name:kn': 'ಗೋಮ್ಮಟೇಶ್ವರ ಮೂತಿ೯'}"
1645493489,Sangolli Rayanna,15.3502394,75.1389205,Hubballi,Karnataka,India,,,,"{'historic': 'statue', 'name': 'Sangolli Rayanna', 'name:kn': 'ಸಂಗೊಳ್ಳಿ ರಾಯಣ್ಣ', 'tourism': 'attraction'}"
1652805643,Raja Ram Mohan Roy,12.9666951,77.5949971,Bengaluru,Karnataka,India,,,,"{'historic': 'memorial', 'memorial': 'bust', 'name': 'Raja Ram Mohan Roy', 'name:kn': 'ರಾಮ್ ಮೋಹನ್ ರಾಯ್', 'subject': 'Ram Mohan Roy', 'subject:wikidata': 'Q335269'}"
1652805654,Kengal Hanumanthaiah,12.9515553,77.5905195,Bengaluru,Karnataka,India,,,,"{'historic': 'memorial', 'memorial': 'bust', 'name': 'Kengal Hanumanthaiah', 'subject': 'Kengal Hanumanthaiah', 'subject:wikidata': 'Q6389169'}"
1657538061,Sangam River Confluence,12.2880428,77.4320447,,Karnataka,India,,,,"{'alt_name': 'Sangama', 'name': 'Sangam River Confluence', 'tourism': 'attraction'}"
1668645383,Jain temple,15.326171,76.4812125,Hosapete,Karnataka,India,,,,"{'amenity': 'place_of_worship', 'historic': 'monument', 'name': 'Jain temple', 'name:kn': 'ಜೈನ ದೇವಸ್ಥಾನ', 'religion': 'jain'}"
1668645410,Shaiva temple,15.3212062,76.47472,Hosapete,Karnataka,India,,,,"{'amenity': 'place_of_worship', 'historic': 'monument', 'name': 'Shaiva temple', 'name:kn': 'ಶೈವ ದೇವಸ್ಥಾನ', 'religion': 'hindu'}"
1668645414,Shringarada hebbagilu,15.3222196,76.4763451,Hosapete,Karnataka,India,,,,"{'amenity': 'place_of_worship', 'historic': 'monument', 'name': 'Shringarada hebbagilu', 'name:kn': 'ಶ್ರಿಂಗಾರದ ಹೆಬ್ಬಾಗಿಲು', 'religion': 'hindu'}"
1668645418,Somavarada hebbagilu,15.3192644,76.477716,Hosapete,Karnataka,India,,,,"{'amenity': 'place_of_worship', 'historic': 'monument', 'name': 'Somavarada hebbagilu', 'name:kn': 'ಸೋಮವಾರದ ಹೆಬ್ಬಾಗಿಲು', 'religion': 'hindu'}"
1668645420,Vaishnava temple,15.3194198,76.4718828,Hosapete,Karnataka,India,,,,"{'amenity': 'place_of_worship', 'historic': 'monument', 'name': 'Vaishnava temple', 'name:en': 'Ranga Temple', 'name:kn': 'ವೈಷ್ಣವ ದೇವಸ್ಥಾನ', 'religion': 'hindu'}"
1668645422,Vaishnava temple,15.3209507,76.4743294,Hosapete,Karnataka,India,,,,"{'amenity': 'place_of_worship', 'historic': 'monument', 'name': 'Vaishnava temple', 'name:kn': 'ವೈಷ್ಣವ ದೇವಸ್ಥಾನ', 'religion': 'hindu'}"
1670018286,Nandishwara Amusement Park,12.8014838,77.5775481,,Karnataka,India,,,,"{'name': 'Nandishwara Amusement Park', 'tourism': 'attraction', 'wheelchair': 'no'}"
1673175507,Jain temple,15.3199203,76.4805752,Hosapete,Karnataka,India,,,,"{'amenity': 'place_of_worship', 'historic': 'wayside_shrine', 'name': 'Jain temple', 'name:kn': 'ಜೈನ ದೇವಸ್ಥಾನ', 'religion': 'jain'}"
1673175512,Naddkall Durgamma Temple,15.3182313,76.478784,Hosapete,Karnataka,India,,,,"{'amenity': 'place_of_worship', 'historic': 'monument', 'name': 'Naddkall Durgamma Temple', 'religion': 'hindu'}"
1673367223,Harike Bhavi,15.3103172,76.4047409,Hosapete,Karnataka,India,,,,"{'historic': 'wayside_shrine', 'man_made': 'water_well', 'name': 'Harike Bhavi', 'name:kn': 'ಹರಿಕೆ ಭಾವಿ'}"
1676740758,Parameshwara Temple,15.3355299,76.4587842,Hosapete,Karnataka,India,,,,"{'historic': 'ruins', 'name': 'Parameshwara Temple', 'name:kn': 'ಪರಮೇಶ್ವರ ದೇವಸ್ಥಾನ'}"
1676740761,Shankeshwara temple,15.3354454,76.4587829,Hosapete,Karnataka,India,,,,"{'historic': 'ruins', 'name': 'Shankeshwara temple', 'name:kn': 'ಶಂಕೇಶ್ವರ ದೇವಸ್ಥಾನ'}"
1676740767,Virupaksha rear entrance,15.3356817,76.4584389,Hosapete,Karnataka,India,,,,"{'historic': 'archaeological_site', 'name': 'Virupaksha rear entrance', 'religion': 'hindu', 'ruins': 'yes'}"
1681305208,Sarvajna Peeta,13.8571677,74.8671123,,Karnataka,India,,,,"{'historic': 'wayside_shrine', 'lit': 'no', 'name': 'Sarvajna Peeta', 'name:kn': 'ಸರ್ವಜ್ಞ ಪೀಠ', 'religion': 'hindu'}"
1686117778,Syntheri Rock,15.0846142,74.5242505,,Karnataka,India,,,,"{'name': 'Syntheri Rock', 'name:kn': 'ಸಿಂಥೇರಿ ಬಂಡೆ', 'tourism': 'attraction'}"
1709379170,Jesus on the Cross,12.9756223,77.7495956,Bengaluru,Karnataka,India,,,,"{'name': 'Jesus on the Cross', 'tourism': 'attraction'}"
1712523310,MM Hills Entrance Arch,12.0635237,77.5580451,,Karnataka,India,,,,"{'name': 'MM Hills Entrance Arch', 'tourism': 'attraction'}"
1712595023,MM Hills Entrance Arch,11.9542601,77.6492777,,Karnataka,India,,,,"{'name': 'MM Hills Entrance Arch', 'tourism': 'attraction'}"
1715754370,Old Heritage Village,13.337986,74.7818837,Udupi,Karnataka,India,,,,"{'name': 'Old Heritage Village', 'opening_hours': 'closed', 'tourism': 'museum'}"
1716257936,Kemann Durga Temple Dwara,13.1847056,74.9361772,,Karnataka,India,,,,"{'historic': 'memorial', 'name': 'Kemann Durga Temple Dwara'}"
1727489612,Mekedatu,12.2584997,77.4475194,,Karnataka,India,,,,"{'alt_name': 'Mekedaatu', 'name': 'Mekedatu', 'name:kn': 'ಮೇಕೆದಾಟು', 'old_name': 'Meke datu', 'tourism': 'attraction'}"
1748270881,Mavalinge Sangama,15.2570289,74.5949461,,Karnataka,India,,,,"{'name': 'Mavalinge Sangama', 'name:kn': 'ಮಾವಳಿಂಗೆ ಸಂಗಮ', 'tourism': 'attraction'}"
1780091264,Rock tablets,12.9621688,77.6362486,Bengaluru,Karnataka,India,,,,"{'historic': 'ruins', 'name': 'Rock tablets'}"
1803548746,Archeological Protected Temple,13.0940329,76.242745,,Karnataka,India,,,,"{'historic': 'archaeological_site', 'name': 'Archeological Protected Temple'}"
1818539390,Barkur Fort,13.4706597,74.7556244,,Karnataka,India,,,,"{'historic': 'archaeological_site', 'name': 'Barkur Fort', 'name:kn': 'ಕೋಟೆ'}"
1877813091,Muthyala Maduvu,12.686232,77.6651109,,Karnataka,India,,,,"{'alt_name': 'Muthyalamaduvu', 'int_name': 'Pearl Valley', 'name': 'Muthyala Maduvu', 'tourism': 'attraction'}"
1888467581,Mohini Betta,14.5886491,74.5664511,,Karnataka,India,,,,"{'name': 'Mohini Betta', 'name:kn': 'ಮೋಹಿನಿ ಶಿಖರ', 'name:mr': 'मोहिनी शिखर', 'natural': 'peak', 'tourism': 'attraction'}"
1888467656,Bhairaveshwara Shikhara,14.5902694,74.5673585,,Karnataka,India,,,,"{'name': 'Bhairaveshwara Shikhara', 'name:kn': 'ಭೈರವೇಶ್ವರ ಶಿಖರ', 'name:mr': 'भैरवेश्वर शिखर', 'natural': 'peak', 'tourism': 'attraction'}"
1902396901,INS Chapal,14.8143987,74.1270093,,Karnataka,India,,,,"{'name': 'INS Chapal', 'name:kn': 'ಐಎಣ್ಎಸ್ ಚಪ್ಪಲ್', 'tourism': 'attraction'}"
1967082849,Manjarabad Fort,12.9175212,75.7590831,,Karnataka,India,,,,"{'alt_name': 'Manjirabad Kote', 'historic': 'archaeological_site', 'name': 'Manjarabad Fort', 'name:kn': 'ಮಂಜರಾಬಾದ್ ಕೋಟೆ', 'tourism': 'attraction'}"
2067977325,Chamarajendra Wodeyar Statue,12.9516703,77.5847849,Bengaluru,Karnataka,India,,,,"{'historic': 'memorial', 'memorial': 'statue', 'name': 'Chamarajendra Wodeyar Statue', 'name:kn': 'ಚಾಮರಾಜೇಂದ್ರ ಒಡೆಯರ್ ಪ್ರತಿಮೆ', 'subject': 'Chamarajendra Wodeyar X', 'subject:wikidata': 'Q3666053'}"
2072718460,Somanatakote Durgamma,15.3464472,76.3572949,,Karnataka,India,,,,"{'historic': 'monument', 'name': 'Somanatakote Durgamma', 'name:kn': 'ಸೋಮನಾಥ ಕೋಟೆ ದುರ್ಗಮ್ಮ'}"
2072949828,Veera kallu,15.3040781,76.3460541,,Karnataka,India,,,,"{'historic': 'stone', 'name': 'Veera kallu', 'name:kn': 'ವೀರಕಲ್ಲು'}"
2072949902,"Kaalikamba Temple, Hospet",15.266848,76.3910756,Hosapete,Karnataka,India,,,,"{'historic': 'archaeological_site', 'name': 'Kaalikamba Temple, Hospet', 'name:kn': 'ಕಾಳಿಕಾಂಬ ದೇವಸ್ಥಾನ'}"
2093038104,Kanaganahalli stupa,16.8354558,76.9342863,,Karnataka,India,,,,"{'historic': 'archaeological_site', 'is_in': 'Chittapur; Kalaburgi; Karnataka', 'name': 'Kanaganahalli stupa', 'name:kn': 'ಕನಗನಹಳ್ಳಿ ಸ್ತೂಪ', 'opening_hours': 'Mo-Su 10:00-17:00'}"
2100234699,Triveni Sangama,12.3844556,75.5331477,,Karnataka,India,,,,"{'name': 'Triveni Sangama', 'name:kn': 'ಸಂಗಮ', 'place': 'locality', 'tourism': 'attraction'}"
2115400220,Chikkabenakallu,15.4172528,76.4575693,,Karnataka,India,,,,"{'historic': 'archaeological_site', 'name': 'Chikkabenakallu', 'name:kn': 'ಚಿಕ್ಕ ಬೆಣಕಲ್ಲು'}"
2115400262,Jambunatha Garbha Gudi,15.2371219,76.4084298,Hosapete,Karnataka,India,,,,"{'amenity': 'place_of_worship', 'historic': 'archaeological_site', 'name': 'Jambunatha Garbha Gudi', 'name:kn': 'ಜಂಬುನಾಥ ಗರ್ಭ ಗುಡಿ', 'tourism': 'attraction'}"
2115400267,Jambunatha Temple,15.2371014,76.4078672,Hosapete,Karnataka,India,,,,"{'historic': 'archaeological_site', 'name': 'Jambunatha Temple', 'name:kn': 'ಜಂಬುನಾಥ ದೇವಸ್ಥಾನ'}"
2115400284,Kinnereshwara,15.3682457,76.5337945,,Karnataka,India,,,,"{'historic': 'archaeological_site', 'name': 'Kinnereshwara', 'name:kn': 'ಕಿನ್ನರೇಶ್ವರ'}"
2115400289,Mula Virupaksha,15.3332377,76.4596615,Hosapete,Karnataka,India,,,,"{'historic': 'archaeological_site', 'name': 'Mula Virupaksha', 'name:kn': 'ಮೂಲ ವಿರುಪಾಕ್ಷ'}"
2115400313,Somanatheshwara,15.342598,76.3614145,,Karnataka,India,,,,"{'designation': 'start point to mountain', 'historic': 'archaeological_site', 'name': 'Somanatheshwara', 'name:kn': 'ಸೋಮನಾಥೇಶ್ವರ'}"
2115400330,Vaanibhadreshwara,15.4057446,76.4872785,,Karnataka,India,,,,"{'historic': 'archaeological_site', 'name': 'Vaanibhadreshwara', 'name:kn': 'ವಾಣಿ ಭದ್ರೇಶ್ವರ'}"
2115400682,Papanashana tirta,15.4063681,76.4881816,,Karnataka,India,,,,"{'historic': 'archaeological_site', 'name': 'Papanashana tirta'}"
2115400687,Vanibadreshwara temple,15.4064169,76.4877668,,Karnataka,India,,,,"{'historic': 'archaeological_site', 'name': 'Vanibadreshwara temple', 'name:kn': 'ವಾಣಿಭದ್ರೇಶ್ವರ ದೇವಸ್ಥಾನ'}"
2115400689,Sudha tirta,15.4067381,76.4878827,,Karnataka,India,,,,"{'historic': 'archaeological_site', 'name': 'Sudha tirta'}"
2115400727,Chikka Benakallu(mountain),15.4170391,76.4570819,,Karnataka,India,,,,"{'historic': 'archaeological_site', 'name': 'Chikka Benakallu(mountain)', 'name:kn': 'ಚಿಕ್ಕ ಬೆಣಕಲ್ಲು'}"
2115400753,Bhimana kindi,15.4179475,76.4622023,,Karnataka,India,,,,"{'historic': 'archaeological_site', 'name': 'Bhimana kindi', 'name:kn': 'ಭೀಮನ ಕಿಂಡಿ'}"
2140335892,Magoda Falls,14.8501077,74.752251,,Karnataka,India,,,,"{'name': 'Magoda Falls', 'name:kn': 'ಮಾಗೋಡು ಜಲಪಾತ', 'tourism': 'attraction', 'waterway': 'waterfall'}"
2154405027,Dasarahatti Ranganatha Temple,14.1143868,75.6066695,,Karnataka,India,,,,"{'historic': 'archaeological_site', 'name': 'Dasarahatti Ranganatha Temple', 'name:kn': 'ದಾಸರಹಟ್ಟಿ ರಂಗನಾಥ'}"
2206989167,Vakkandurga Fort,15.9154643,75.8296604,,Karnataka,India,,,,"{'historic': 'castle', 'name': 'Vakkandurga Fort', 'name:kn': 'ವಕ್ಕಂದುರ್ಗ ಕೋಟೆ.'}"
2253257414,Hebbe falls,13.5414025,75.7253701,,Karnataka,India,,,,"{'name': 'Hebbe falls', 'name:kn': 'ಹೆಬ್ಬೆ ಜಲಪಾತ', 'tourism': 'attraction'}"
2261811338,Chennakeshava Temple,13.2468776,76.2237532,,Karnataka,India,,,,"{'amenity': 'place_of_worship', 'name': 'Chennakeshava Temple', 'name:kn': 'ಚೆನ್ನಕೇಶವ ದೇವಾಲಯ', 'religion': 'hindu', 'tourism': 'attraction'}"
2262896866,Statue of Gommateshwara,13.2132333,75.9951992,,Karnataka,India,,,,"{'historic': 'archaeological_site', 'name': 'Statue of Gommateshwara', 'name:kn': 'ಗೊಮ್ಮಟೇಶ್ವರ ಪ್ರತಿಮೆ', 'tourism': 'attraction'}"
2262896906,Nandi,13.2125495,75.9952327,,Karnataka,India,,,,"{'historic': 'archaeological_site', 'name': 'Nandi', 'name:kn': 'ನಂದಿ', 'tourism': 'attraction'}"
2265660719,Bucheshwara Temple,13.0531181,76.176712,Hassan,Karnataka,India,,,,"{'amenity': 'place_of_worship', 'historic': 'archaeological_site', 'name': 'Bucheshwara Temple', 'name:kn': 'ಬುಚ್ಚೇಶ್ವರ ದೇವಾಲಯ', 'style': 'hoysala'}"
2269064007,Chennakeshava Temple,13.3748908,76.1294164,,Karnataka,India,,,,"{'amenity': 'place_of_worship', 'building:style': 'hoysala', 'name': 'Chennakeshava Temple', 'name:kn': 'ಚೆನ್ನಕೇಶವ ದೇವಸ್ಥಾನ', 'religion': 'hindu', 'style': 'hoysala', 'tourism': 'attraction'}"
2274691955,Dr. Vittal Mallya,12.9712738,77.5979269,Bengaluru,Karnataka,India,,,,"{'historic': 'memorial', 'memorial': 'bust', 'name': 'Dr. Vittal Mallya', 'name:etymology:wikidata': 'Q7937268', 'name:kn': 'ಡಾ. ವಿಠ್ಠಲ್ ಮಲ್ಯ'}"
2300527369,Kantheshwara Temple Arch,13.1345414,74.9705202,,Karnataka,India,,,,"{'barrier': 'gate', 'name': 'Kantheshwara Temple Arch', 'tourism': 'attraction'}"
2312340631,Rani Chennamma Statue,15.8672303,74.5117246,Belagavi,Karnataka,India,,,,"{'historic': 'memorial', 'name': 'Rani Chennamma Statue', 'name:kn': 'ರಾಣಿ ಚೆನ್ನಮ್ಮ ಪ್ರತಿಮೆ'}"
2315628056,Chatrapati Shivaji Circle,15.4647934,75.0136719,Dharwad,Karnataka,India,,,,"{'historic': 'monument', 'name': 'Chatrapati Shivaji Circle', 'name:kn': 'ಛತ್ರಪತಿ ಶಿವಾಜಿ ವೃತ್ತ'}"
2317901770,Gandhi Circle,15.4520745,75.301385,,Karnataka,India,,,,"{'historic': 'memorial', 'name': 'Gandhi Circle', 'name:kn': 'ಗಾಂಧಿ ವೃತ್ತ'}"
2345814949,Kudroli Temple Entrance arch,12.876607,74.8332695,Mangaluru,Karnataka,India,,,,"{'barrier': 'gate', 'name': 'Kudroli Temple Entrance arch', 'tourism': 'attraction'}"
2405825779,Pigeon Hole,12.9480567,77.5879713,Bengaluru,Karnataka,India,,,,"{'attraction': 'pigeon_hole', 'name': 'Pigeon Hole', 'name:kn': 'ಪಾರಿವಾಳದ ಗೂಡು', 'tourism': 'attraction'}"
2424154985,Tippu Drop,13.3681232,77.681081,,Karnataka,India,,,,"{'name': 'Tippu Drop', 'tourism': 'attraction'}"
2429395318,Temple,15.2824581,76.5270831,Hosapete,Karnataka,India,,,,"{'historic': 'monument', 'name': 'Temple', 'name:kn': 'ದೇವಸ್ಥಾನ'}"
2458030293,Sri Durga Parameshwari Temple,14.0133937,74.5576939,,Karnataka,India,,,,"{'amenity': 'place_of_worship', 'name': 'Sri Durga Parameshwari Temple', 'name:kn': 'ಶ್ರೀ ದುರ್ಗ ಪರಮೇಶ್ವರಿ ದೇವಾಲಯ', 'religion': 'hindu', 'tourism': 'attraction'}"
2481012812,Mahatma Gandhi Statue,14.2201451,74.7994256,,Karnataka,India,,,,"{'historic': 'monument', 'name': 'Mahatma Gandhi Statue', 'name:kn': 'ಮಹಾತ್ಮ ಗಾಂಧಿ ಪ್ರತಿಮ'}"
2514790709,Maliyabad Fort,16.150635,77.3563071,Raichur,Karnataka,India,,,,"{'historic': 'castle', 'name': 'Maliyabad Fort', 'name:kn': 'ಮಲಿಯಬಾದ್ ಕೊಟೆ'}"
2516504210,Mudgal Fort Eastern Entrance,16.0106495,76.4394824,,Karnataka,India,,,,"{'name': 'Mudgal Fort Eastern Entrance', 'tourism': 'attraction'}"
2544809428,Battle of Talikote,16.1948087,76.1916898,,Karnataka,India,,"Approximate location, the battle was spread over a wide area, nowhere near Talikote",,"{'alt_name': 'Battle of Rakshasi - Tangadagi', 'historic': 'battlefield', 'name': 'Battle of Talikote', 'name:kn': 'ತಾಳೀಕೋಟೆಯ ಯುದ್ಧ', 'note': 'Approximate location, the battle was spread over a wide area, nowhere near Talikote'}"
2586797602,Ganesha Idol,12.9002658,77.4671585,Bengaluru,Karnataka,India,,,,"{'artwork_type': 'statue', 'name': 'Ganesha Idol', 'name:kn': 'ಗಣೇಶ ಮೂರ್ತಿ', 'tourism': 'attraction'}"
2619352530,Jamalabad Fort,13.0273698,75.2958407,,Karnataka,India,,,,"{'historic': 'castle', 'name': 'Jamalabad Fort', 'name:kn': 'ಜಮಲಾಬಾದ್ ಕೋಟೆ', 'tourism': 'attraction'}"
2632504991,Waterfall,14.060003,74.6955494,,Karnataka,India,,,,"{'name': 'Waterfall', 'name:kn': 'ಜಲಪಾತ', 'tourism': 'attraction'}"
2661160883,Guledagudda Fort,16.0509244,75.7789386,,Karnataka,India,,,,"{'historic': 'castle', 'name': 'Guledagudda Fort', 'name:kn': 'ಗುಲೆದಗುದ್ದ ಕೋಟೆ'}"
2672617428,Gurumathakal Fort,16.8696802,77.3936575,,Karnataka,India,,,,"{'historic': 'castle', 'name': 'Gurumathakal Fort', 'name:kn': 'ಗುರುಮಠಕಲ್ ಕೋಟೆ'}"
2713086867,Chikkigudi,16.0221567,75.88029,,Karnataka,India,,,,"{'amenity': 'place_of_worship', 'historic': 'yes', 'name': 'Chikkigudi', 'name:kn': 'ಚಿಕ್ಕಿಗುಡಿ', 'religion': 'hindu'}"
2764725516,Rangapura Fort,15.9364133,76.4609684,,Karnataka,India,,,,"{'historic': 'ruins', 'name': 'Rangapura Fort'}"
2786019781,War Memorial,12.9857827,77.5905553,Bengaluru,Karnataka,India,,,,"{'historic': 'memorial', 'name': 'War Memorial'}"
2805656880,Mudakavi Fort,15.9698505,75.3812412,,Karnataka,India,,,,"{'historic': 'castle', 'name': 'Mudakavi Fort', 'name:kn': 'ಮುದಕವಿ ಕೋಟೆ', 'tourism': 'attraction'}"
2831394810,Triveni Samgama,12.4078042,76.7214697,,Karnataka,India,,,,"{'name': 'Triveni Samgama', 'name:kn': 'ತ್ರಿವೇಣಿ ಸಂಗಮ', 'tourism': 'attraction'}"
2905324761,Gudekote,14.8332103,76.6210864,,Karnataka,India,,,,"{'historic': 'castle', 'name': 'Gudekote', 'name:kn': 'ಗುಡೇಕೋಟೆ'}"
2910306405,Kempegowda Tower,13.0124266,77.582456,Bengaluru,Karnataka,India,,,,"{'historic': 'monument', 'name': 'Kempegowda Tower', 'name:kn': 'ಕೆಂಪೇಗೌಡ ಗೋಪುರ'}"
2939032222,Sri Rama Temple Hulimavu,12.8779083,77.6025132,Bengaluru,Karnataka,India,,"The Anjenya (Hanuman) idol is special. This is a very old temple, and the annual Chariot festival is a big event.",,"{'amenity': 'place_of_worship', 'historic': 'yes', 'name': 'Sri Rama Temple Hulimavu', 'name:kn': 'ಶ್ರೀ ರಾಮ ದೇವಸ್ಥಾನ ಹುಳಿಮಾವು', 'note': 'The Anjenya (Hanuman) idol is special. This is a very old temple, and the annual Chariot festival is a big event.', 'religion': 'hindu'}"
2980669591,Kanakuppe Fort,14.5518356,76.2860215,,Karnataka,India,,,,"{'historic': 'castle', 'name': 'Kanakuppe Fort', 'name:kn': 'ಕಣಕುಪ್ಪೆ ಕೋಟೆ'}"
2999617616,Vijayant Tank,12.9621165,77.6286126,Bengaluru,Karnataka,India,,,,"{'historic': 'memorial', 'name': 'Vijayant Tank'}"
3071601170,Shastri Chowk,16.7488304,77.133389,,Karnataka,India,,,,"{'historic': 'monument', 'junction': 'yes', 'name': 'Shastri Chowk', 'name:kn': 'ಶಾಸ್ತ್ರೀ ಚೌಕ್'}"
3150443028,Kudluteertha Falls,13.4103862,75.1218925,,Karnataka,India,,,,"{'alt_name': 'Seeta Falls', 'name': 'Kudluteertha Falls', 'name:kn': 'ಕೂಡ್ಲುತೀರ್ಥ', 'tourism': 'attraction', 'waterway': 'waterfall'}"
3156734709,Channarayana Durga,13.5977419,77.2086651,,Karnataka,India,,,,"{'historic': 'castle', 'name': 'Channarayana Durga', 'name:kn': 'ಚನ್ನರಾಯನ ದುರ್ಗ'}"
3185202648,Nandi Durga,13.368039,77.6821501,,Karnataka,India,,,,"{'access': 'yes', 'historic': 'castle', 'name': 'Nandi Durga', 'name:kn': 'ನಂದಿದುರ್ಗ'}"
3185202655,Varlakonda Fort,13.6364992,77.7778175,,Karnataka,India,,,,"{'historic': 'castle', 'name': 'Varlakonda Fort', 'name:kn': 'ವರ್ಲಕೊಂಡ ಕೋಟೆ'}"
3198709028,Planetarium,17.3334921,76.8315552,Kalaburagi,Karnataka,India,Tank Bund Road,,,"{'addr:street': 'Tank Bund Road', 'amenity': 'planetarium', 'name': 'Planetarium', 'tourism': 'museum'}"
3219006253,Coffee Museum,13.3414502,75.8102484,Chikkamagaluru,Karnataka,India,,,,"{'name': 'Coffee Museum', 'operator': 'Coffee Board of India', 'tourism': 'museum'}"
3223052629,Hutridurga,12.9618724,77.1240124,,Karnataka,India,,,,"{'historic': 'castle', 'name': 'Hutridurga', 'name:kn': 'ಹುತ್ರಿದುರ್ಗ'}"
3224357583,Krishnaraja Wodeyar,12.3087837,76.6530657,Mysuru,Karnataka,India,,,,"{'historic': 'monument', 'name': 'Krishnaraja Wodeyar', 'name:kn': 'ಕೃಷ್ಣರಾಜ ಒಡೆಯರು'}"
3244912585,Chaityalaya,16.0177209,75.8842246,,Karnataka,India,,,,"{'amenity': 'place_of_worship', 'historic': 'yes', 'name': 'Chaityalaya', 'name:kn': 'ಚೈತ್ಯಾಲಯ', 'religion': 'buddhist'}"
3276157874,Sand museum,12.2950285,76.6820189,Mysuru,Karnataka,India,,,,"{'fee': 'yes', 'name': 'Sand museum', 'opening_hours': 'Mo-Su 08:30-18:30', 'tourism': 'museum', 'website': 'https://www.mysoretourism.org.in/mysore-sand-sculpture-museum', 'wheelchair': 'limited'}"
3276157977,Melody World Wax Museum,12.3023964,76.6777198,Mysuru,Karnataka,India,Vihara Marga,,,"{'addr:city': 'Mysuru', 'addr:postcode': '570010', 'addr:street': 'Vihara Marga', 'name': 'Melody World Wax Museum', 'opening_hours': '10:00-19:00', 'phone': '099004 54707', 'tourism': 'museum'}"
3287221014,Karadidurga,14.5481237,76.0396002,,Karnataka,India,,,,"{'historic': 'castle', 'name': 'Karadidurga', 'name:kn': 'ಕರಡಿದುರ್ಗ'}"
3287221016,Uchchangidurga,14.5607438,76.0485371,,Karnataka,India,,,,"{'historic': 'castle', 'name': 'Uchchangidurga', 'name:kn': 'ಉಚ್ಚಂಗಿದುರ್ಗ'}"
3298494102,CV Raman Statue,12.979247,77.6531648,Bengaluru,Karnataka,India,,,,"{'historic': 'memorial', 'memorial': 'statue', 'name': 'CV Raman Statue', 'name:kn': 'ಎಲ್ ಆರ್ ಡಿ ಇ ಜಂಕ್ಷನ್', 'subject': 'C. V. Raman', 'subject:wikidata': 'Q60429'}"
3300627908,Indira Gandhi Rashtriya Manav Sangrahalaya,12.314503,76.6576048,Mysuru,Karnataka,India,,,,"{'name': 'Indira Gandhi Rashtriya Manav Sangrahalaya', 'name:etymology:wikidata': 'Q1149', 'name:kn': 'ಇಂದಿರಾ ಗಾಂಧಿ ರಾಷ್ಟ್ರೀಯ ಮಾನವ ಸಂಗ್ರಹಾಲಯ', 'tourism': 'museum'}"
3304615440,Manipal Museum of Anatomy & Pathology,13.3525202,74.7854428,Udupi,Karnataka,India,,,,"{'fee': 'yes', 'name': 'Manipal Museum of Anatomy & Pathology', 'opening_hours': 'Mo-Su 08:00-18:00', 'tourism': 'museum', 'wheelchair': 'yes'}"
3316175218,Budikote,12.9047148,78.1276599,,Karnataka,India,,,,"{'historic': 'castle', 'name': 'Budikote', 'name:kn': 'ಬೂದಿಕೋಟೆ', 'name:kn:iso15919': 'Būdikōṭe'}"
3345761458,Shettihalli Rosary Church,12.8697354,76.0182494,Hassan,Karnataka,India,,"Shettihalli Church is located 2km from Shettihalli, Hassan district in Karnataka. Built in the 1860s by the French missionaries in India, the church is a magnificent structure of Gothic Architecture. After the construction of the Hemavati Dam and Reservoir in 1960 the church was Submerged under water due to the dam. It has since then become a famous tourist spot where people flock to see the half submerged church during monsoon. It is also known as The Submerged Church or The Floating Church.",Q24950770,"{'access': 'yes', 'denomination': 'catholic', 'historic': 'ruins', 'name': 'Shettihalli Rosary Church', 'ruins': 'church', 'wikidata': 'Q24950770', 'wikimedia_commons': 'Category:Shettihalli Rosary Church', 'wikipedia': 'en:Shettihalli Rosary Church'}"
3347429146,Huliyurudurga,12.8201532,77.0359874,,Karnataka,India,,,,"{'historic': 'castle', 'name': 'Huliyurudurga', 'name:kn': 'ಹುಲಿಯೂರುದುರ್ಗ'}"
3353589248,Science Museum,17.3354737,76.8288266,Kalaburagi,Karnataka,India,,,,"{'name': 'Science Museum', 'tourism': 'museum'}"
3353608233,MSK Mill Road,17.3297672,76.8159861,Kalaburagi,Karnataka,India,,,,"{'name': 'MSK Mill Road', 'tourism': 'museum'}"
3353612328,Basaveshewara Statue,17.3338976,76.8359936,Kalaburagi,Karnataka,India,,,,"{'name': 'Basaveshewara Statue', 'name:kn': 'ಬಸವೇಶ್ವರ ಪ್ರತಿಮೆ', 'tourism': 'attraction'}"
3362820997,Sri Vishnu Vitoba Bajana Mandir (Andachtsstätte),12.8816233,74.8180771,Mangaluru,Karnataka,India,,,,"{'historic': 'memorial', 'name': 'Sri Vishnu Vitoba Bajana Mandir (Andachtsstätte)'}"
3370005705,Officers Housing Colony Memorial,12.9765911,77.6445115,Bengaluru,Karnataka,India,,,,"{'historic': 'memorial', 'memorial': 'plaque', 'name': 'Officers Housing Colony Memorial', 'start_date': '1965'}"
3375013342,Brahmi Script Stone,16.8353008,76.9337846,,Karnataka,India,,"Kanaganahalli, situated about 3 km from Sannati, is an important Buddhist site where an ancient Mahastupa was built. It is on the left bank of the Bhima river in Chitapur taluk, Kalaburagi district in Karnataka, India. Nalwar is the nearest Railway station about 19 km from Sannati. The Buddhist site is about 2.5 km from Chandrala Parameshwari temple of Sannati.",Q6360221,"{'artist_name': 'Satavahanas', 'historic': 'memorial', 'inscription': 'Buddhist', 'inscription:url': 'http://www.thefreelibrary.com/Narrative+reliefs+in+Kanaganahalli%3A+their+importance+for+Buddhist...-a0271884982', 'memorial': 'stone', 'name': 'Brahmi Script Stone', 'name:kn': 'ಬ್ರಾಹ್ಮಿ ಲಿಪಿ ಕಲ್ಲು', 'start_date': '1st Century CE', 'wikidata': 'Q6360221', 'wikipedia': 'en:Kanaganahalli'}"
3375048874,Ashoka Pillar,16.8343889,76.9322257,,Karnataka,India,,,,"{'historic': 'monument', 'name': 'Ashoka Pillar', 'name:kn': 'ಅಶೋಕ ಸ್ಥಂಭ'}"
3375048875,King Ashoka,16.8343085,76.932229,,Karnataka,India,,,,"{'historic': 'memorial', 'memorial': 'statue', 'name': 'King Ashoka'}"
3390746047,KPC Glass House,12.310159,76.6480638,Mysuru,Karnataka,India,,,,"{'name': 'KPC Glass House', 'tourism': 'attraction'}"
3393508235,Bust of Dr. Rajkumar,12.9104577,77.5855754,Bengaluru,Karnataka,India,,"In Memory of Dr. Rajkumar, Kannada actor and singer.",,"{'historic': 'monument', 'name': 'Bust of Dr. Rajkumar', 'note': 'In Memory of Dr. Rajkumar, Kannada actor and singer.'}"
3410462437,Aircraft (LCA),12.9623454,77.6825383,Bengaluru,Karnataka,India,,,,"{'historic': 'memorial', 'material': 'metal', 'memorial': 'aircraft', 'name': 'Aircraft (LCA)', 'type': 'aircraft'}"
3451068237,ಉಂಚಳ್ಳಿ ಜಲಪಾತ,14.409973,74.7481079,,Karnataka,India,,"Unchalli Falls, also known as Lushington Falls, is a waterfall created by a 116-metre (381 ft) drop in the River Aghanashini in Karnataka, India. The falls are located 35 km (22 mi) from Sirsi. The falls are named for J. D. Lushington, a District Collector for the British Government, who discovered the falls in 1845. It is one of world's 5 waterfalls where one can witness the extremely rare phenomena ""Moonbows"".",Q37303,"{'alt_name': 'Lushington Falls', 'name': 'ಉಂಚಳ್ಳಿ ಜಲಪಾತ', 'name:en': 'Unchalli Falls', 'name:kn': 'ಉಂಚಳ್ಳಿ ಜಲಪಾತ', 'tourism': 'attraction', 'waterway': 'waterfall', 'wikidata': 'Q37303'}"
3463767125,Haliyala Fort,15.3350742,74.7546199,,Karnataka,India,,,,"{'historic': 'castle', 'name': 'Haliyala Fort', 'name:kn': 'ಹಳಿಯಾಳ ಕೋಟೆ'}"
3514846889,Sira Gate,13.3625154,77.1033088,Tumakuru,Karnataka,India,,,,"{'historic': 'yes', 'junction': 'yes', 'name': 'Sira Gate', 'name:kn': 'ಸಿರಾ ಗೇಟ್'}"
3583012693,Pavate,15.4405815,74.985486,Dharwad,Karnataka,India,,,,"{'historic': 'monument', 'name': 'Pavate', 'name:kn': 'ದಾನಪ್ಪ ಚಿಂತಪ್ಪ ಪಾವಟೆ'}"
3583789203,Ferdinand Kittel,15.4527742,75.0073362,Dharwad,Karnataka,India,,,,"{'historic': 'monument', 'name': 'Ferdinand Kittel', 'name:kn': 'ಫರ್ಡಿನಾಂಡ್ ಕಿಟ್ಟೆಲ್'}"
3585292886,Basaveshwara,15.4593163,75.0078587,Dharwad,Karnataka,India,,,,"{'historic': 'monument', 'name': 'Basaveshwara', 'name:kn': 'ಬಸವೇಶ್ವರ'}"
3585347437,Dr. Ambedkar,15.4595448,75.0085992,Dharwad,Karnataka,India,,,,"{'historic': 'monument', 'name': 'Dr. Ambedkar', 'name:kn': 'ಡಾ ಅಂಬೇಡ್ಕರ್'}"
3585756293,Poet Bendre's House,15.4633882,74.9880358,Dharwad,Karnataka,India,,,,"{'historic': 'monument', 'name': ""Poet Bendre's House""}"
3585882493,Kargil Memorial,15.4521514,75.0023622,Dharwad,Karnataka,India,,,,"{'historic': 'monument', 'name': 'Kargil Memorial', 'name:kn': 'ಕಾರ್ಗಿಲ್ ಸ್ಮಾರಕ'}"
3585912393,Subhas Chandra Bose,15.4603517,75.0085527,Dharwad,Karnataka,India,,,,"{'historic': 'monument', 'name': 'Subhas Chandra Bose', 'name:kn': 'ಸುಭಾಷ್ ಚಂದ್ರ ಬೋಸ್'}"
3668309489,Mahishasura,12.2750725,76.6709592,Mysuru,Karnataka,India,,Mahishasura is a bovine asura in Hinduism. He is depicted in Hindu literature as a deceitful demon who pursued his evil ways by shape-shifting. Mahishasura was the son of the asura Rambha and the brother of buffalo-demoness named Mahishi. He was ultimately killed by the goddess Durga with her trishula (trident) after which she gained the epithet Mahishasuramardini. Mahishasura had a son named Gajasura.,Q663318,"{'artwork_type': 'statue', 'historic': 'monument', 'name': 'Mahishasura', 'name:kn': 'ಮಹಿಶಾಸುರ', 'tourism': 'artwork', 'wikidata': 'Q663318', 'wikimedia_commons': 'Category:Mahishasura', 'wikipedia': 'en:Mahishasura'}"
3669052064,Namada Chilume,13.3697735,77.1922261,Tumakuru,Karnataka,India,,"Namada Chilume is a natural spring situated by Devarayanadurga, near Tumkur in the state of Karnataka in India. The spring issues from the surface of the rock. It is believed that Rama, along with Sita and Lakshmana, stayed here during their exile in the forest. Rama searched for water to apply tilaka to his forehead. When he could not find any water, he shot an arrow at the rock. The arrow penetrated the rock, made a hole, and the water came out. Henceforth, this place was called Namada Chilume, meaning ""Spring of Tilak"". As shown in the picture, the water comes out from a small hole throughout the year and never dries up. The water that comes out is considered as sacred water (tirtha). It is approximately 14 km from Tumkur and 80 km from Bengaluru.",Q6961204,"{'name': 'Namada Chilume', 'name:kn': 'ನಾಮದ ಚಿಲುಮೆ', 'tourism': 'attraction', 'wikidata': 'Q6961204', 'wikimedia_commons': 'Category:Namada Chilume', 'wikipedia': 'en:Namada Chilume'}"
3669879707,Water Gate,12.425707,76.6864812,,Karnataka,India,,,,"{'historic': 'yes', 'name': 'Water Gate'}"
3669879712,Ruins of Tippu Sultan's Palace,12.4256223,76.6839285,,Karnataka,India,,,,"{'historic': 'ruins', 'name': ""Ruins of Tippu Sultan's Palace""}"
3710903429,Kittur Rani Chennama Statue,12.963396,77.5855103,Bengaluru,Karnataka,India,,,,"{'historic': 'memorial', 'memorial': 'statue', 'name': 'Kittur Rani Chennama Statue', 'name:kn': 'ಕಿತ್ತೂರು ರಾಣಿ ಚೆನ್ನಮ್ಮ ಪ್ರತಿಮೆ', 'subject': 'Kittur Rani Chennamma', 'subject:wikidata': 'Q3536979'}"
3710999579,Trignometric Survey Baseline Plaque,13.0126325,77.5822301,Bengaluru,Karnataka,India,,,,"{'historic': 'memorial', 'inscription': 'Survey of India Bangalore Base Line SW End S. 1867-6-8 Rebuilt 1937', 'memorial': 'plaque', 'name': 'Trignometric Survey Baseline Plaque'}"
3765310520,Rastra Kavi Kuvempu,12.9787583,77.5826869,Bengaluru,Karnataka,India,,,,"{'height': '8', 'historic': 'memorial', 'memorial': 'statue', 'min_height': '5', 'name': 'Rastra Kavi Kuvempu', 'name:kn': 'ಕುವೆಂಪು', 'subject': 'Kuvempu', 'subject:wikidata': 'Q3351108'}"
3799213554,Obbavana Kindi,14.2157764,76.3924736,Chitradurga,Karnataka,India,,,,"{'historic': 'archaeological_site', 'name': 'Obbavana Kindi', 'name:kn': 'ಒನಕೆ ಓಬವ್ವನ ಕಿಂಡಿ'}"
3802068358,Bhadra Nature Camp ,13.1980792,75.195311,,Karnataka,India,,,,"{'name': 'Bhadra Nature Camp ', 'tourism': 'attraction'}"
3802126717,Lobo's House,13.1339724,75.289805,,Karnataka,India,,,,"{'historic': 'ruins', 'landmark': 'yes', 'name': ""Lobo's House"", 'tourism': 'attraction'}"
3802136739,Dilapidated Church,13.1338733,75.2714349,,Karnataka,India,,,,"{'historic': 'ruins', 'monument': 'yes', 'name': 'Dilapidated Church', 'tourism': 'attraction'}"
3808139771,Reverend Ferdinand Kittel,12.9741022,77.6115552,Bengaluru,Karnataka,India,,,,"{'historic': 'memorial', 'material': 'metal', 'memorial': 'statue', 'name': 'Reverend Ferdinand Kittel', 'name:kn': 'ಫರ್ಡಿನ್ಯಾಂಡ್ ಕಿಟ್ಟೆಲ್', 'subject:wikidata': 'Q77310', 'subject:wikipedia': 'en:Ferdinand Kittel'}"
3815279419,Mahatma Gandhiji,16.7718674,77.1381799,,Karnataka,India,,,,"{'historic': 'memorial', 'memorial': 'statue', 'name': 'Mahatma Gandhiji', 'name:kn': 'ಮಹಾತ್ಮ ಗಾಂಧೀಜಿ'}"
3818200011,Safari Start Point,12.7997834,77.5770322,,Karnataka,India,,,,"{'name': 'Safari Start Point', 'tourism': 'attraction'}"
3819506152,Mulabagilu Fort,13.1713242,78.3804873,,Karnataka,India,,,,"{'historic': 'castle', 'name': 'Mulabagilu Fort', 'name:kn': 'ಮುಳಬಾಗಿಲು ಕೋಟೆ'}"
3891509367,Narayanadurga,12.7125243,76.5858841,,Karnataka,India,,,,"{'historic': 'castle', 'name': 'Narayanadurga', 'name:kn': 'ನಾರಾಯಣದುರ್ಗ', 'natural': 'peak'}"
3895155048,Fort Kagala,14.5060296,74.3573534,,Karnataka,India,,Kagal Fort is a an ancient fort which has been forgotten by many. But the ruins still exist.,,"{'historic': 'castle', 'name': 'Fort Kagala', 'name:kn': 'ಕಾಗಲ ಕೋಟೆ', 'note': 'Kagal Fort is a an ancient fort which has been forgotten by many. But the ruins still exist.'}"
3914219611,Kappe Arabatta Shilashasana,15.9221735,75.685841,,Karnataka,India,,"Kappe Arabhatta was a Chalukya warrior of the 8th century who is known from a Kannada verse inscription, dated to c. 700 CE, and carved on a cliff overlooking the northeast end of the artificial lake in Badami, Karnataka, India. The inscription consists of five stanzas written out in ten lines in the Kannada script. Stanza 2 consists of a Sanskrit śloka. Of the remaining stanzas, all except the first are in the tripadi, a Kannada verse metre.",Q6367138,"{'historic': 'ruins', 'name': 'Kappe Arabatta Shilashasana', 'name:kn': 'ಕಪ್ಪೆ ಅರಬಟ್ಟನ ಶಿಲಾಶಾಸನ', 'wikidata': 'Q6367138', 'wikipedia': 'en:Kappe Arabhatta'}"
3980403402,Muscle Power Exhibit,12.9843074,77.5913805,Bengaluru,Karnataka,India,,,,"{'name': 'Muscle Power Exhibit', 'tourism': 'attraction'}"
3995018999,Tipu's Rest House,13.3718913,77.6805343,,Karnataka,India,,,,"{'historic': 'ruins', 'name': ""Tipu's Rest House""}"
4029938933,GTS Baseline Survey Point,13.0125912,77.5823361,Bengaluru,Karnataka,India,,,,"{'name': 'GTS Baseline Survey Point', 'tourism': 'attraction'}"
4078446925,Mallalli Falls,12.6812226,75.7236637,,Karnataka,India,,,,"{'name': 'Mallalli Falls', 'name:kn': 'ಮಲ್ಲಳ್ಳಿ ಜಲಪಾತ', 'tourism': 'attraction', 'waterway': 'waterfall', 'wheelchair': 'no'}"
4101646591,Sharada Public School,12.2855804,76.5968754,Mysuru,Karnataka,India,,,,"{'name': 'Sharada Public School', 'tourism': 'attraction'}"
4109414797,Pyramid Valley International,12.7000841,77.4939319,Bengaluru,Karnataka,IN,,,,"{'addr:city': 'Bengaluru', 'addr:country': 'IN', 'addr:hamlet': 'Kebbedoddi Village', 'addr:place': 'Pyramid Valley International', 'addr:postcode': '562112', 'addr:state': 'Karnataka', 'addr:subdistrict': 'Harohalli Hobli', 'email': 'info@pyramidvalley.org', 'name': 'Pyramid Valley International', 'opening_hours': 'Mo-Su 09:00-18:00', 'phone': '+91 81470 93627', 'tourism': 'attraction', 'website': 'https://www.pyramidvalley.org/', 'wheelchair': 'limited'}"
4191584495,Sculpture museum,15.321674,76.4722527,Hosapete,Karnataka,India,,,,"{'fee': 'no', 'name': 'Sculpture museum', 'opening_hours': 'Sa-Th 10:00-17:00', 'tourism': 'museum', 'wheelchair': 'no'}"
4225449492,Mandalpatti last jeep point,12.5424116,75.7037103,,Karnataka,India,,,,"{'name': 'Mandalpatti last jeep point', 'tourism': 'attraction'}"
4272727195,jaamun,12.9694804,77.6457024,Bengaluru,Karnataka,India,,,,"{'name': 'jaamun', 'tourism': 'attraction'}"
4368677991,Sri Mahalakshmi Temple,13.4714768,77.285839,,Karnataka,India,,,,"{'name': 'Sri Mahalakshmi Temple', 'name:kn': 'ಶ್ರೀ ಮಹಾಲಕ್ಷ್ಮಿ ದೇವಸ್ಥಾನ', 'tourism': 'attraction'}"
4368861391,Indiranagar Plaque,12.9803441,77.637495,Bengaluru,Karnataka,India,,,,"{'historic': 'memorial', 'name': 'Indiranagar Plaque', 'name:en': 'Indiranagar Plaque'}"
4461240133,Vibhuti falls,14.5983501,74.551366,,Karnataka,India,,,,"{'alt_name': 'Vibhuthi falls', 'name': 'Vibhuti falls', 'name:kn': 'ವಿಭೂತಿ', 'old_name': 'Vibhooti falls', 'tourism': 'attraction', 'waterway': 'waterfall'}"
4473780943,Shrimantgad,15.1152493,75.609764,,Karnataka,India,,,,"{'historic': 'castle', 'name': 'Shrimantgad', 'name:kn': 'ಶ್ರೀಮಂತಗಡ'}"
4491064218,Aakalagavi,14.9973227,74.5264097,,Karnataka,India,,,,"{'name': 'Aakalagavi', 'name:kn': 'ಆಕಳಗವಿ', 'natural': 'cave_entrance', 'tourism': 'attraction'}"
4506479747,Dr B R Ambedkar Statue,15.3072413,76.4745043,Hosapete,Karnataka,India,,,,"{'check_date': '2022-08-02', 'historic': 'memorial', 'memorial': 'statue', 'name': 'Dr B R Ambedkar Statue', 'name:kn': 'ಡಾ ಬಿ ಆರ್ ಅಂಬೇಡ್ಕರ್'}"
4512413322,Kuvempu,12.9751413,77.6546502,Bengaluru,Karnataka,India,,,,"{'historic': 'memorial', 'memorial': 'bust', 'name': 'Kuvempu'}"
4528413793,143/4,15.2859643,76.3879555,Hosapete,Karnataka,India,,,,"{'name': '143/4', 'name:en': '143/4', 'tourism': 'attraction'}"
4548858192,Sri Kasi Vishwanathar Temple,12.9568231,77.6188771,Bengaluru,Karnataka,India,,,,"{'amenity': 'place_of_worship', 'historic': 'yes', 'name': 'Sri Kasi Vishwanathar Temple', 'name:en': 'Sri Kasi Vishwanathar Temple', 'religion': 'hindu', 'start_date': '1887'}"
4550329208,Monolithic Bull,15.3338762,76.4668537,Hosapete,Karnataka,India,,,,"{'historic': 'ruins', 'name': 'Monolithic Bull', 'name:en': 'Monolithic Bull'}"
4550330701,Hemakuta Hill Temples,15.3329279,76.4593547,Hosapete,Karnataka,India,,,,"{'historic': 'ruins', 'name': 'Hemakuta Hill Temples'}"
4560207698,Camp #3,15.008718,75.0006011,,Karnataka,India,,,,"{'name': 'Camp #3', 'name:en': 'Camp #3', 'tourism': 'attraction'}"
4561184908,Market,15.0275988,75.0041071,,Karnataka,India,,,,"{'name': 'Market', 'name:en': 'Market', 'tourism': 'attraction'}"
4561255190,Krishna Garden,16.3261576,75.884508,,Karnataka,India,,,,"{'name': 'Krishna Garden', 'name:en': 'Krishna Garden', 'tourism': 'attraction'}"
4561293989,Rock Garden,16.336088,75.900211,,Karnataka,India,,,,"{'name': 'Rock Garden', 'name:en': 'Rock Garden', 'tourism': 'attraction'}"
4563309690,Home for age monks of Gomang Monastery,15.024337,75.001312,,Karnataka,India,,,,"{'name': 'Home for age monks of Gomang Monastery', 'name:en': 'Home for age monks of Gomang Monastery', 'tourism': 'attraction'}"
4563309692,Aquarium,16.8285453,75.721254,Vijayapura,Karnataka,India,,,,"{'name': 'Aquarium', 'name:en': 'Aquarium', 'opening_hours': 'Mo-Su 10:00-17:30', 'tourism': 'museum'}"
4563662792,Shivgiri Amusement Rides,16.8173121,75.7570373,Vijayapura,Karnataka,India,,,,"{'name': 'Shivgiri Amusement Rides', 'name:en': 'Shivgiri Amusement Rides', 'opening_hours': 'Mo-Su 09:00-19:00', 'tourism': 'attraction'}"
4564737691,Shilpamala,12.7013358,77.2523143,,Karnataka,India,,Inside Janapada Loka,,"{'description': 'Inside Janapada Loka', 'name': 'Shilpamala', 'name:kn': 'ಶಿಲ್ಪಮಾಲ', 'opening_hours': 'We-Mo 09:00-17:30', 'tourism': 'museum'}"
4566721191,Lake View Farm,12.9566102,77.7329889,Bengaluru,Karnataka,India,,,,"{'name': 'Lake View Farm', 'name:en': 'Lake View Farm', 'tourism': 'attraction'}"
4584023942,Kunchikal Falls,13.6952414,75.0275534,,Karnataka,India,,"Kunchikal Falls is a waterfall in India located in the Nidagodu village near Masthikatte in the Shimoga district of Karnataka state. Kunchikal Falls cascades down rocky boulders and the total height of the falls is 455 meters, according to the World Waterfall Database. Kunchikal Falls is formed by the Varahi River.",Q38816,"{'name': 'Kunchikal Falls', 'name:kn': 'ಕುಂಚಿಕಲ್ ಅಬ್ಬೆ', 'tourism': 'attraction', 'wikidata': 'Q38816', 'wikipedia': 'en:Kunchikal Falls'}"
4585165992,Birds Watch Tower,12.3037314,76.6762061,Mysuru,Karnataka,India,,,,"{'name': 'Birds Watch Tower', 'name:en': 'Birds Watch Tower', 'tourism': 'attraction'}"
4585237547,Funway,12.2952847,76.6830995,Mysuru,Karnataka,India,,,,"{'name': 'Funway', 'name:en': 'Funway', 'tourism': 'attraction'}"
4691598844,"Dr. BR Ambedkar, Constitution of India",12.9603763,77.6015418,Bengaluru,Karnataka,India,,,,"{'access': 'yes', 'historic': 'monument', 'name': 'Dr. BR Ambedkar, Constitution of India'}"
4694862994,Potnis Galli Dharwad,15.4603227,75.0190951,Dharwad,Karnataka,India,Potnis Galli,,,"{'addr:street': 'Potnis Galli', 'name': 'Potnis Galli Dharwad', 'name:en': 'Potnis Galli Dharwad', 'tourism': 'attraction'}"
4703733901,Nadaprabhu Kempe Gowda,12.9716421,77.6582993,Bengaluru,Karnataka,India,,,,"{'historic': 'memorial', 'memorial': 'statue', 'name': 'Nadaprabhu Kempe Gowda', 'name:kn': 'ನಾಡಪ್ರಭು ಕೆಂಪೇಗೌಡ', 'subject': 'Kempe Gowda I', 'subject:wikidata': 'Q6387049'}"
4715340490,Basavanna Monument,12.9844454,77.5885019,Bengaluru,Karnataka,India,,,,"{'artwork_subject': 'Basavanna', 'historic': 'memorial', 'material': 'metal', 'memorial': 'statue', 'name': 'Basavanna Monument', 'name:en': 'Basavanna Monument', 'subject:wikidata': 'Q771686'}"
4752462141,Basava Vana,15.3524544,75.1344268,Hubballi,Karnataka,India,,,,"{'historic': 'monument', 'name': 'Basava Vana', 'name:en': 'Basava Vana', 'name:kn': 'ಬಸವ ವನ'}"
4827607525,Bull Temple,13.3693722,77.6860634,,Karnataka,India,,,,"{'amenity': 'place_of_worship', 'name': 'Bull Temple', 'religion': 'hindu', 'tourism': 'attraction'}"
4828690973,Doctor Rajkumar,12.9365741,77.5798876,Bengaluru,Karnataka,India,,,,"{'historic': 'memorial', 'memorial': 'statue', 'name': 'Doctor Rajkumar', 'name:kn': 'ಡಾ|| ರಾಜ್\u200cಕುಮಾರ್', 'subject': 'Dr. Rajkumar', 'subject:wikidata': 'Q984634'}"
4926628941,Karivarathi Temple,14.2109272,76.3999219,Chitradurga,Karnataka,India,,,,"{'historic': 'archaeological_site', 'name': 'Karivarathi Temple', 'name:kn': 'ಕರಿವರ್ತಿ ದೇವಾಲಯ'}"
4926741144,Jhanda Batteri,14.2211998,76.3981837,Chitradurga,Karnataka,India,,,,"{'historic': 'archaeological_site', 'name': 'Jhanda Batteri', 'name:kn': 'ಜಂಡ ಬತೇರಿ'}"
4926741372,Jodu Batteri,14.2101084,76.4016438,Chitradurga,Karnataka,India,,,,"{'historic': 'archaeological_site', 'name': 'Jodu Batteri', 'name:kn': 'ಜೋಡು ಬತೇರಿ'}"
4926741414,Lal Batteri,14.2094997,76.3964677,Chitradurga,Karnataka,India,,,,"{'historic': 'archaeological_site', 'name': 'Lal Batteri', 'name:kn': 'ಲಾಲ್ ಬತೇರಿ'}"
4926741418,Nellikayi Siddappana Batteri,14.2072896,76.3941229,Chitradurga,Karnataka,India,,,,"{'historic': 'archaeological_site', 'name': 'Nellikayi Siddappana Batteri', 'name:kn': 'ನೆಲ್ಲಿಕಾಯಿ ಸಿದ್ದಪ್ಪನ ಬತೇರಿ'}"
4929220816,Mint and Palegar Office,14.2154381,76.3942503,Chitradurga,Karnataka,India,,,,"{'historic': 'archaeological_site', 'name': 'Mint and Palegar Office'}"
4950994667,Badami Cave Temples,15.9183722,75.6843849,,Karnataka,India,,"The Badami cave temples are a complex of Buddhist, Hindu and Jain cave temples located in Badami, a town in the Bagalkot district in northern part of Karnataka, India. The caves are important examples of Indian rock-cut architecture, especially Badami Chalukya architecture, and the earliest date from the 6th century. Badami is a modern name and was previously known as ""Vataapi"", the capital of the early Chalukya dynasty, which ruled much of Karnataka from the 6th to the 8th century. Badami is situated on the west bank of a man-made lake ringed by an earthen wall with stone steps; it is surrounded on the north and south by forts built during Early Chalukya and in later times.",Q825236,"{'name': 'Badami Cave Temples', 'tourism': 'attraction', 'wikidata': 'Q825236', 'wikipedia': 'en:Badami cave temples'}"
4951025381,Yellamma Temple,15.9195534,75.6843475,,Karnataka,India,,,,"{'amenity': 'place_of_worship', 'historic': 'ruins', 'name': 'Yellamma Temple', 'name:kn': 'ದತ್ತಾತ್ರೇಯ ದೇವಸ್ಥಾನ', 'religion': 'hindu', 'ruins': 'temple'}"
4954870213,Mudgal Fort Northern Entrance,16.0141665,76.4349768,,Karnataka,India,,,,"{'name': 'Mudgal Fort Northern Entrance', 'tourism': 'attraction'}"
4954871831,Bastion,16.0083713,76.4360297,,Karnataka,India,,,,"{'historic': 'archaeological_site', 'name': 'Bastion'}"
4956708877,Siddlaphadi Cave,15.9437683,75.7013757,,Karnataka,India,,,,"{'name': 'Siddlaphadi Cave', 'natural': 'cave_entrance', 'tourism': 'attraction'}"
4971954121,Infosys Gate 6,12.8502548,77.6640021,,Karnataka,India,,,,"{'name': 'Infosys Gate 6', 'name:en': 'Infosys Gate 6', 'name:kn': 'ಇನ್ಫೋಸಿಸ್ ದ್ವಾರ ೬', 'tourism': 'attraction'}"
4979669615,LCA Tejas Model,12.9806974,77.5971034,Bengaluru,Karnataka,India,,,,"{'aircraft:type': 'military', 'historic': 'monument', 'man_made': 'aircraft', 'model': 'HAL Tejas', 'model:wikidata': 'Q175940', 'name': 'LCA Tejas Model'}"
5043151021,Vintage Cars,12.3189617,75.8696038,,Karnataka,India,,,,"{'name': 'Vintage Cars', 'name:en': 'Vintage Cars', 'tourism': 'museum'}"
5043151621,View Point,12.3811989,75.5136006,,Karnataka,India,,,,"{'name': 'View Point', 'name:en': 'View Point', 'tourism': 'attraction'}"
5141071423,Peninsular Gneiss,12.9776542,77.5973699,Bengaluru,Karnataka,India,,,,"{'alt_name': 'Archean Age Rock', 'name': 'Peninsular Gneiss', 'tourism': 'attraction'}"
5142589714,Aihole museum,16.0204269,75.8827044,,Karnataka,India,,,,"{'name': 'Aihole museum', 'name:kn': 'ವಸ್ತು ಸಂಗ್ರಹಾಲಯ', 'tourism': 'museum'}"
5167596355,RVCE Founder's Memorial,12.9225418,77.4981542,Bengaluru,Karnataka,India,,,,"{'historic': 'memorial', 'name': ""RVCE Founder's Memorial""}"
5235925922,House of R. K. Narayan,12.3279317,76.6407055,Mysuru,Karnataka,India,Vivekananda Road,,,"{'addr:housenumber': 'D14', 'addr:postcode': '570 020', 'addr:street': 'Vivekananda Road', 'name': 'House of R. K. Narayan', 'name:kn': 'ಆರ್ ಕೇ ನಾರಾಯಣ್ ಅವರ ಮನೆ', 'tourism': 'museum'}"
5237321921,Kota Venkataramana Swamy Temple,12.9520485,77.5774243,Bengaluru,Karnataka,India,,,,"{'name': 'Kota Venkataramana Swamy Temple', 'name:ko': '코타 벤카타라마나 스와미 템플', 'tourism': 'attraction'}"
5250122790,Kempegowda Tower,12.9797866,77.6211119,Bengaluru,Karnataka,India,,,,"{'historic': 'monument', 'name': 'Kempegowda Tower', 'name:kn': 'ಕೆಂಪೇಗೌಡ ಗೋಪುರ'}"
5250142957,Kempegowda Tower,12.9479473,77.5634015,Bengaluru,Karnataka,India,,,,"{'historic': 'monument', 'name': 'Kempegowda Tower', 'name:hi': 'केम्पेगौडा गोपुरा', 'name:kn': 'ಕೆಂಪೇಗೌಡ ಗೋಪುರ'}"
5250142964,Kempegowda Statue,12.9491053,77.5629079,Bengaluru,Karnataka,India,,,,"{'historic': 'memorial', 'memorial': 'statue', 'name': 'Kempegowda Statue', 'name:kn': 'ಕೆಂಪೆಗೌಡ ಪ್ರತಿಮೆ', 'name:ml': 'കെമ്പഗൗഡ പ്രതിമ'}"
5305559830,Anand Mahal,16.8264006,75.7196856,Vijayapura,Karnataka,India,,,,"{'name': 'Anand Mahal', 'name:kn': 'ಆನಂದ ಮಹಲ್', 'tourism': 'attraction'}"
5305560022,Muranakeri,16.8156729,75.7199748,Vijayapura,Karnataka,India,,,,"{'historic': 'castle', 'name': 'Muranakeri', 'name:kn': 'ಮುರಾಣಕೇರಿ'}"
5308376428,Sowthadka Mahaganapathi Entrance arch,12.8627723,75.4141787,,Karnataka,India,,,,"{'name': 'Sowthadka Mahaganapathi Entrance arch', 'tourism': 'attraction'}"
5338374874,Statue of U. S. Mallya,13.0108016,74.7931615,Mangaluru,Karnataka,India,,,,"{'historic': 'memorial', 'memorial': 'statue', 'name': 'Statue of U. S. Mallya', 'subject': 'U. Srinivas Mallya', 'subject:wikidata': 'Q7863541'}"
5511749321,Kottalesha Hanuman Temple,16.348219,75.6181862,,Karnataka,India,,,,"{'name': 'Kottalesha Hanuman Temple', 'tourism': 'attraction'}"
5532623821,Bridge,13.3396134,74.7074473,Udupi,Karnataka,India,,,,"{'name': 'Bridge', 'tourism': 'attraction'}"
5684825321,Ambedkar Circle,16.3477509,75.620687,,Karnataka,India,,,,"{'name': 'Ambedkar Circle', 'name:kn': 'ಅಂಬೇಡ್ಕರ್ ವೃತ್ತ', 'tourism': 'attraction'}"
5685289121,Basaveshwar Circle,16.3483225,75.6181884,,Karnataka,India,,,,"{'name': 'Basaveshwar Circle', 'name:kn': 'ಬಸವೇಶ್ವರ ವೃತ್ತ', 'tourism': 'attraction'}"
5692527621,Dr M H Mari Gowda Statue,12.9530509,77.5851199,Bengaluru,Karnataka,India,,,,"{'historic': 'memorial', 'memorial': 'statue', 'name': 'Dr M H Mari Gowda Statue', 'name:kn': 'ಡಾ. ಎಂ. ಎಚ್. ಮಾರಿಗೌಡ ಪ್ರತಿಮೆ', 'subject': 'M. H. Marigowda', 'subject:wikidata': 'Q6712641'}"
5725420221,Thomas Inman's Dungeon,12.4248975,76.6899899,,Karnataka,India,,,,"{'historic': 'monument', 'name': ""Thomas Inman's Dungeon""}"
5725420321,Armoury House,12.4203482,76.6886281,,Karnataka,India,,,,"{'historic': 'monument', 'name': 'Armoury House'}"
5727601821,Armoury House,12.4243742,76.6771174,,Karnataka,India,,,,"{'historic': 'monument', 'name': 'Armoury House'}"
5749684679,Glass House,14.4495011,75.8940331,Davanagere,Karnataka,India,,,,"{'addr:city': 'Davanagere', 'name': 'Glass House', 'tourism': 'attraction'}"
5820280254,Bangalore World Trade Center,13.0122926,77.5562115,Bengaluru,Karnataka,India,Dr. Rajkumar Road,,,"{'addr:postcode': '560055', 'addr:street': 'Dr. Rajkumar Road', 'name': 'Bangalore World Trade Center', 'name:hi': 'बैंगलूर वेल्ड ट्रेड सेंटर', 'tourism': 'attraction', 'website': 'https://www.wtcbengaluru.org/'}"
5885157538,Malpe Seawalk,13.3478931,74.6955203,Udupi,Karnataka,India,,,,"{'name': 'Malpe Seawalk', 'tourism': 'attraction'}"
5910167531,Kavi Shaila,13.6017388,75.3186035,,Karnataka,India,,,,"{'name': 'Kavi Shaila', 'name:kn': 'ಕವಿ ಶೈಲ', 'tourism': 'attraction'}"
5910167537,Poornachandra Tejaswi Memorial,13.5988776,75.3154524,,Karnataka,India,,,,"{'name': 'Poornachandra Tejaswi Memorial', 'tourism': 'attraction'}"
5926683951,Bhima's Foot,14.1891192,74.8724799,,Karnataka,India,,,,"{'name': ""Bhima's Foot"", 'tourism': 'attraction'}"
6003068816,Udupi Entrance Arch,13.3248376,74.7397265,Udupi,Karnataka,India,,,,"{'name': 'Udupi Entrance Arch', 'tourism': 'attraction'}"
6087532879,Jade Kote,14.5797728,75.0408375,,Karnataka,India,,,,"{'historic': 'castle', 'name': 'Jade Kote', 'name:kn': 'ಜಡೆ ಕೋಟೆ'}"
6100421117,Talarigatta Gate,15.3366293,76.4863008,Hosapete,Karnataka,India,,,,"{'historic': 'gate', 'name': 'Talarigatta Gate', 'name:kn': 'ತಲಾರಿಘಟ್ಟವ ಹೆಬ್ಬಾಗಿಳು', 'ruins': 'yes'}"
6105744786,"Laxmi Venkatesh temple, Ibrahimpur",16.8047229,75.7278637,Vijayapura,Karnataka,India,,,,"{'historic': 'castle', 'name': 'Laxmi Venkatesh temple, Ibrahimpur'}"
6105744788,Sringeri Sharada Peeth( Shankar math),16.8100847,75.7340283,Vijayapura,Karnataka,India,,,,"{'name': 'Sringeri Sharada Peeth( Shankar math)', 'tourism': 'attraction'}"
6118998587,Rosewood Palace / Shivappa Nayaka Palace,13.9279498,75.5832899,Shivamogga,Karnataka,India,,,,"{'name': 'Rosewood Palace / Shivappa Nayaka Palace', 'name:en': 'Rosewood Palace', 'name:hi': 'Shivappa Nayaka Palace', 'name:kn': 'ಶಿವಪ್ಪ ನಾಯಕನ ಅರಮನೆ', 'opening_hours': 'Tu-Su 10:00-17:00', 'tourism': 'museum'}"
6119747208,Sonda fort,14.7378231,74.8128229,,Karnataka,India,,,,"{'historic': 'castle', 'name': 'Sonda fort', 'name:kn': 'ಸೋಂದಾ ಕೋಟೆ'}"
6126435787,ಮಹಿಪತಿ ದಾಸರ ವೃಂದಾವನ,16.5988191,75.6384187,,Karnataka,India,,,,"{'name': 'ಮಹಿಪತಿ ದಾಸರ ವೃಂದಾವನ', 'tourism': 'attraction'}"
6160979423,Double-storeyed Mandapa,15.3405593,76.4739086,Hosapete,Karnataka,India,,Ruined Gateway,,"{'description': 'Ruined Gateway', 'historic': 'gate', 'name': 'Double-storeyed Mandapa', 'ruins': 'yes'}"
6161853552,Stone Doors,15.3164607,76.4708958,Hosapete,Karnataka,India,,,,"{'historic': 'ruins', 'name': 'Stone Doors'}"
6261539285,Sule Bazaar,15.3340087,76.4700574,Hosapete,Karnataka,India,,,,"{'name': 'Sule Bazaar', 'tourism': 'attraction'}"
6269297416,Hanging Bridge,12.4368905,75.9248807,,Karnataka,India,,,,"{'name': 'Hanging Bridge', 'tourism': 'attraction'}"
6271193385,Hanumana Pada,15.3307186,76.4806669,Hosapete,Karnataka,India,,Sometimes described as 'Monkey Temple',,"{'name': 'Hanumana Pada', 'name:kn': 'ಹನುಮಾನ ಪಾದ', 'note': ""Sometimes described as 'Monkey Temple'"", 'tourism': 'attraction'}"
6271193386,Anegundi Fort,15.3538608,76.4821316,,Karnataka,India,,,,"{'historic': 'castle', 'name': 'Anegundi Fort', 'name:kn': 'ಆನೆಗುಂಡಿ ಕೋಟೆ', 'tourism': 'viewpoint'}"
6343183017,Erumad darga Sufi shaheed maqam,12.3189854,75.6480561,,Karnataka,India,,,,"{'access': 'permissive', 'historic': 'tomb', 'name': 'Erumad darga Sufi shaheed maqam', 'name:kn': 'ಸೂಫಿ ಶರೀಫ್ ದರ್ಗಾ', 'name:ml': 'എരുമാട് സുഫി ശരീഫ് മഖാമ്', 'tomb': 'yes'}"
6372190285,Old Town Mysore,12.3166096,76.6524446,Mysuru,Karnataka,India,,,,"{'name': 'Old Town Mysore', 'tourism': 'attraction'}"
6403483986,A G Kodgi Residence,13.6141131,74.9413479,,Karnataka,India,,,,"{'historic': 'castle', 'name': 'A G Kodgi Residence'}"
6411719986,Vathinane Sun Set View Point,13.8725172,74.6051256,,Karnataka,India,,,,"{'name': 'Vathinane Sun Set View Point', 'tourism': 'attraction'}"
6411752685,Someshwara. Beach,13.8711284,74.6051363,,Karnataka,India,,,,"{'name': 'Someshwara. Beach', 'tourism': 'attraction'}"
6419051485,Kannada Flag,12.969018,77.5779834,Bengaluru,Karnataka,India,AM Lane,,,"{'addr:postcode': '560053', 'addr:street': 'AM Lane', 'name': 'Kannada Flag', 'tourism': 'attraction'}"
6422184485,Sai Vishram Resort,13.8764634,74.6034603,,Karnataka,India,,,,"{'name': 'Sai Vishram Resort', 'tourism': 'attraction'}"
6844093882,Veersoudha - Congress Well,15.8384444,74.5009982,Belagavi,Karnataka,India,,,,"{'historic': 'memorial', 'name': 'Veersoudha - Congress Well'}"
7041526285,Methar Mahal,16.8229008,75.7223928,Vijayapura,Karnataka,India,,,,"{'name': 'Methar Mahal', 'tourism': 'attraction'}"
7053814891,Great living chola temples,12.2597005,77.1441138,,Karnataka,India,,,,"{'historic': 'monument', 'name': 'Great living chola temples'}"
7076853485,Bird sanctuary,12.2847302,76.6563783,Mysuru,Karnataka,India,,,,"{'alt_name': 'shuka vana', 'name': 'Bird sanctuary', 'tourism': 'attraction', 'wheelchair': 'limited'}"
7106481886,Kambala,13.1924513,75.0408858,,Karnataka,India,,,,"{'name': 'Kambala', 'tourism': 'attraction'}"
7144159385,Sandalwood Oil Factory,12.2806165,76.6383724,Mysuru,Karnataka,India,,,,"{'name': 'Sandalwood Oil Factory', 'tourism': 'museum'}"
7293721311,Rezwan Razack Museum of Indian Paper Money,12.9713364,77.61411,Bengaluru,Karnataka,India,Brunton Road,,,"{'addr:city': 'Bangalore', 'addr:country': 'IN', 'addr:housenumber': '19', 'addr:postcode': '560025', 'addr:street': 'Brunton Road', 'addr:suburb': 'Ashok Nagar', 'charge': '100 INR', 'check_date': '2023-12-31', 'contact:facebook': 'rezwanRazacksMuseumofIndianPaperMoney', 'contact:instagram': 'indianpapermoneymuseum', 'contact:youtube': 'therezwanrazacksmuseumofin8849', 'email': 'contact@indianpapermoneymuseum.com', 'fee': 'yes', 'level': '4', 'museum': 'living_history', 'name': 'Rezwan Razack Museum of Indian Paper Money', 'opening_hours': 'Tu-Su 10:30-18:00', 'operator:type': 'private', 'payment:cash': 'yes', 'payment:mastercard': 'yes', 'payment:visa': 'yes', 'phone': '08025128555', 'tourism': 'museum', 'website': 'https://www.indianpapermoneymuseum.com/', 'wheelchair': 'yes'}"
7301398924,Gudibande Fort,13.6763169,77.7010011,,Karnataka,India,,,,"{'access': 'yes', 'ele': '826', 'historic': 'fort', 'name': 'Gudibande Fort'}"
7301726067,The Water Tough,12.9824012,77.6346696,Bengaluru,Karnataka,India,,,,"{'historic': 'monument', 'name': 'The Water Tough'}"
7400097785,Haft Gumbad,17.3420751,76.8451049,Kalaburagi,Karnataka,India,,,,"{'name': 'Haft Gumbad', 'tourism': 'attraction'}"
7400097786,Ancient Mosque,16.8279436,75.7204467,Vijayapura,Karnataka,India,,,,"{'name': 'Ancient Mosque', 'tourism': 'attraction'}"
7400097787,Gagan Mahal,16.8274186,75.7201047,Vijayapura,Karnataka,India,,,,"{'name': 'Gagan Mahal', 'name:kn': 'ಗಗನ್\u200cಮಹಲ್', 'tourism': 'attraction'}"
7415807785,Malgatti Shivalaya Temple,15.9237,75.68169,,Karnataka,India,,,,"{'name': 'Malgatti Shivalaya Temple', 'tourism': 'attraction'}"
7415807786,Ramalinga Temple Complex,16.0073611,75.878981,,Karnataka,India,,,,"{'name': 'Ramalinga Temple Complex', 'tourism': 'attraction'}"
7415807787,Boyargudi Temple,16.0152385,75.8825892,,Karnataka,India,,,,"{'name': 'Boyargudi Temple', 'tourism': 'attraction'}"
7606656016,Keladi Museum and Historical Research Bureau,14.2240922,75.0151661,,Karnataka,India,,,,"{'name': 'Keladi Museum and Historical Research Bureau', 'tourism': 'museum'}"
8324572521,Bhremer Sana,12.8529251,74.8716201,Mangaluru,Karnataka,India,,,,"{'historic': 'monument', 'inscription': 'Place of worship', 'name': 'Bhremer Sana'}"
8431715018,Cliff Jumping Point,15.3577205,76.4342695,,Karnataka,India,,,,"{'name': 'Cliff Jumping Point', 'tourism': 'attraction'}"
8531451430,Viragallu,13.0203439,77.5695591,Bengaluru,Karnataka,India,,Ancient viragallu with carving showing arrow and tiger indicating site where a man was killed in the encounter.,,"{'description': 'Ancient viragallu with carving showing arrow and tiger indicating site where a man was killed in the encounter.', 'historic': 'memorial', 'material': 'stone', 'memorial': 'stone', 'name': 'Viragallu'}"
9175932904,Vimor Museum of Living Textiles,12.9639524,77.6137479,Bengaluru,Karnataka,India,,,,"{'name': 'Vimor Museum of Living Textiles', 'operator': 'Vimor Handloom Foundation', 'tourism': 'museum', 'website': 'https://vimorfoundation.org/the-living-museum/'}"
9230690432,Frazer Town Plaque,12.9959275,77.6135721,Bengaluru,Karnataka,India,,,,"{'historic': 'memorial', 'memorial': 'plaque', 'name': 'Frazer Town Plaque'}"
9230690436,Thiruvalluvar Statue,12.9809601,77.6156482,Bengaluru,Karnataka,India,,,,"{'historic': 'memorial', 'material': 'bronze', 'memorial': 'statue', 'name': 'Thiruvalluvar Statue', 'start_date': '1991', 'subject': 'Thiruvalluvar', 'subject:wikidata': 'Q2353373'}"
9257555904,The Registry of Sarees,12.95618,77.6368819,Bengaluru,Karnataka,India,,,,"{'name': 'The Registry of Sarees', 'shop': 'clothes', 'tourism': 'museum', 'website': 'https://theregistryofsarees.com/'}"
9387137285,Ridge Point,12.7313231,75.7123953,,Karnataka,India,,Ridge Point,,"{'description': 'Ridge Point', 'name': 'Ridge Point', 'tourism': 'attraction'}"
9387813093,Mookanamane Abbe,12.7846751,75.7204186,,Karnataka,India,,,,"{'name': 'Mookanamane Abbe', 'tourism': 'attraction', 'water': 'waterfall'}"
9477298695,Brahmagiri Edict of Ashoka,14.8138171,76.8063422,,Karnataka,India,,,,"{'historic': 'archaeological_site', 'name': 'Brahmagiri Edict of Ashoka'}"
9536777477,Sandesha Museum of Communication,12.9728315,77.603711,Bengaluru,Karnataka,India,,,,"{'name': 'Sandesha Museum of Communication', 'opening_hours': 'Mo-Sa 10:00-16:00', 'operator': 'Department of Post', 'tourism': 'museum'}"
9679115817,Little stone beach,15.3576333,76.4343701,,Karnataka,India,,,,"{'name': 'Little stone beach', 'tourism': 'attraction'}"
9688218540,Balekundri Statue,12.9840884,77.5972644,Bengaluru,Karnataka,India,,,,"{'historic': 'memorial', 'memorial': 'bust', 'name': 'Balekundri Statue', 'start_date': '2005', 'subject': 'S. G. Balekundri', 'subject:wikidata': 'Q7387476'}"
9779742235,Railway Locomotive,12.9851197,77.5912616,Bengaluru,Karnataka,India,,,,"{'historic': 'locomotive', 'name': 'Railway Locomotive', 'tourism': 'attraction'}"
9786116688,Mahakavi Kuvempu,12.9968751,77.5713008,Bengaluru,Karnataka,India,,,,"{'historic': 'memorial', 'material': 'metal', 'memorial': 'statue', 'name': 'Mahakavi Kuvempu'}"
9839297921,Dr B R Ambedkar,12.9795676,77.5920942,Bengaluru,Karnataka,India,,,,"{'historic': 'memorial', 'memorial': 'statue', 'name': 'Dr B R Ambedkar', 'subject:wikidata': 'Q231690'}"
9839297922,Mahatma Gandhi,12.9789737,77.5895731,Bengaluru,Karnataka,India,,,,"{'artist:wikidata': 'Q7288610', 'artist_name': 'Ram V. Sutar', 'height': '8.2', 'historic': 'memorial', 'material': 'bronze', 'memorial': 'statue', 'name': 'Mahatma Gandhi', 'name:kn': 'ಮಹಾತ್ಮ ಗಾಂಧಿ', 'start_date': '2014-10-02', 'subject:wikidata': 'Q1001'}"
9860079422,Tomb of Ali Shahi Barid,17.9194464,77.504845,Bidar,Karnataka,India,,,,"{'historic': 'monument', 'name': 'Tomb of Ali Shahi Barid'}"
9893685226,Sri Muneshwaraswamy Temple,12.9783177,77.6979604,Bengaluru,Karnataka,India,,,,"{'access': 'yes', 'historic': 'wayside_shrine', 'name': 'Sri Muneshwaraswamy Temple', 'religion': 'hindu', 'survey:date': '2022-07-16', 'wheelchair': 'limited'}"
9904157592,William Baillie Memorial,12.4123046,76.7149874,,Karnataka,India,,,,"{'historic': 'memorial', 'memorial': 'war_memorial', 'name': 'William Baillie Memorial'}"
9910066818,Thimmayya Bust,12.9818667,77.5944952,Bengaluru,Karnataka,India,,,,"{'historic': 'memorial', 'memorial': 'bust', 'name': 'Thimmayya Bust', 'subject': 'Marichikkaiah Thimmiah'}"
9930197200,Tank Model,12.9638047,77.6107243,Bengaluru,Karnataka,India,,,,"{'name': 'Tank Model', 'tourism': 'attraction'}"
9984551450,Kempegowda Museum,12.9741606,77.6107368,Bengaluru,Karnataka,India,,,,"{'museum': 'person', 'name': 'Kempegowda Museum', 'tourism': 'museum'}"
10032117268,16th (The Queen's) Lancers,12.9541208,77.604649,Bengaluru,Karnataka,India,,,,"{'historic': 'memorial', 'memorial': 'plaque', 'name': ""16th (The Queen's) Lancers"", 'start_date': '1876'}"
10068523449,Swami Vivekananda,12.9858214,77.6222586,Bengaluru,Karnataka,India,,,,"{'historic': 'memorial', 'memorial': 'statue', 'name': 'Swami Vivekananda', 'subject': 'Swami Vivekanada', 'subject:wikidata': 'Q47478'}"
10116078383,Blue Water Falls,14.9491651,74.3646054,,Karnataka,India,,,,"{'name': 'Blue Water Falls', 'operator': 'Kali Reserve Forest', 'tourism': 'attraction'}"
10129602779,Tank,12.987766,77.6222853,Bengaluru,Karnataka,India,,,,"{'name': 'Tank', 'reservation': 'no', 'tourism': 'attraction'}"
10162630425,Nadaprabhu Kempegowda Statue,13.1992131,77.6822729,,Karnataka,India,,"The Statue of Prosperity is the statue of the founder and architect of the city of Bangalore, termed widely as 'Nadaprabhu' Kempe Gowda, constructed at the Kempegowda International Airport, in Devanahalli of Bengaluru.",Q115616969,"{'artwork_subject': 'Nadaprabhu Kempegowda', 'artwork_type': 'statue', 'height': '33', 'historic': 'memorial', 'material': 'bronze', 'memorial': 'statue', 'name': 'Nadaprabhu Kempegowda Statue', 'official_name': 'Statue of Prosperity', 'start_date': '2022', 'subject:wikidata': 'Q6387049', 'tourism': 'artwork', 'wikidata': 'Q115616969', 'wikipedia': 'en:Statue of Prosperity'}"
10228570996,Jawaharlal Nehru,12.9882525,77.5766314,Bengaluru,Karnataka,India,,,,"{'historic': 'memorial', 'memorial': 'bust', 'name': 'Jawaharlal Nehru', 'name:kn': 'ಜವಹರಲಾಲ್ ನೆಹರೂ'}"
10238264062,Indian Music Experience,12.8918025,77.5835797,Bengaluru,Karnataka,India,Brigade Millenium Road,,,"{'addr:city': 'Bangalore', 'addr:country': 'IN', 'addr:postcode': '560078', 'addr:street': 'Brigade Millenium Road', 'addr:suburb': 'JP Nagar', 'check_date': '2023-04-18', 'contact:facebook': 'Indianmusicexperience', 'contact:instagram': 'indianmusicexperience', 'contact:twitter': 'IME_Bangalore', 'contact:youtube': 'https://www.youtube.com/channel/UCCs_VBPbnLHfsYKJbea0eHQ', 'email': 'info@indianmusicexperience.org', 'fee': 'yes', 'museum': 'art', 'name': 'Indian Music Experience', 'opening_hours': 'Tu-Fr 10:00-18:00; Sa-Su 11:00-19:00', 'payment:mastercard': 'yes', 'payment:upi': 'yes', 'payment:visa': 'yes', 'phone': '+91 9686602366', 'source': 'survey', 'tourism': 'museum', 'website': 'https://indianmusicexperience.org/', 'wheelchair': 'yes'}"
10238264063,Manjushree Museum of Packaging and Design,12.8552347,77.6755285,,Karnataka,India,,,,"{'alt_name': 'Manjushree Heritage Packaging Museum', 'name': 'Manjushree Museum of Packaging and Design', 'operator': 'Manjushree Tecnopark', 'phone': '43436200', 'tourism': 'museum'}"
10238264069,NIMHANS Brain Museum,12.9406685,77.5987087,Bengaluru,Karnataka,India,,,,"{'check_date': '2024-09-07', 'email': 'nimhansbrainmuseum@gmail.com', 'museum': 'science', 'name': 'NIMHANS Brain Museum', 'operator': 'NIMHANS', 'operator:type': 'government', 'phone': '080-26563357', 'tourism': 'museum', 'website': 'https://thenimhansbrainbank.in/museum/'}"
10238264070,SL Bhatia Medicine Museum,12.9298525,77.6209523,Bengaluru,Karnataka,India,,,,"{'contact:facebook': 'medicinestory', 'email': 'slbhatiamuseum@gmail.com', 'name': 'SL Bhatia Medicine Museum', 'name:etymology:wikidata': 'Q68225148', 'official_name': 'Major General SL Bhatia Museum for the History of Medicine', 'opening_hours': 'Mo-Fr 09:00-16:30; Su 09:00-13:00', 'operator': ""St. John's Medical College"", 'phone': '9632172577', 'tourism': 'museum', 'website': 'https://sjri.res.in/'}"
10243890350,Twin Rocks,12.781202,77.2322015,,Karnataka,India,,,,"{'alt_name': 'Jodi Bandegalu', 'name': 'Twin Rocks', 'tourism': 'attraction'}"
10243890351,Chakrateertha Pond,12.7783456,77.2343688,,Karnataka,India,,,,"{'name': 'Chakrateertha Pond', 'tourism': 'attraction'}"
10299596109,Hanging Bridge,13.2411931,75.3653408,,Karnataka,India,,,,"{'historic': 'monument', 'name': 'Hanging Bridge'}"
10299596210,Amba Theertha,13.2489334,75.3450635,,Karnataka,India,,,,"{'name': 'Amba Theertha', 'tourism': 'attraction'}"
10302145557,Kakana Kote Safari Centre,12.0137525,76.256641,,Karnataka,India,,,,"{'name': 'Kakana Kote Safari Centre', 'tourism': 'attraction'}"
10731265599,Mangalore Clock Tower,12.8653616,74.8402156,Mangaluru,Karnataka,India,,,,"{'name': 'Mangalore Clock Tower', 'tourism': 'attraction', 'wikimedia_commons': 'File:Clock tower Mangalore 2023.jpg'}"
10753087384,Cable bridge,13.2111656,75.2734613,,Karnataka,India,,,,"{'name': 'Cable bridge', 'tourism': 'attraction'}"
10873245740,Capt. Neikezhakuo Kengurüse,12.9654652,77.6197111,Bengaluru,Karnataka,India,,,,"{'artwork_subject': 'Neikezhakuo Kengurüse', 'historic': 'memorial', 'material': 'metal', 'memorial': 'bust', 'name': 'Capt. Neikezhakuo Kengurüse', 'subject:wikidata': 'Q21903459'}"
11061488475,General Bipin Rawat Circle Memorial,12.9121941,77.6382957,Bengaluru,Karnataka,India,,,,"{'historic': 'memorial', 'inscription': 'Gen. Bipin Rawat Circle\nInaugurated by\nSri. M Satish Reddy', 'material': 'metal', 'memorial': 'bust', 'name': 'General Bipin Rawat Circle Memorial', 'subject:wikidata': 'Q4915447'}"
11201340846,Corporation Bank Heritage Museum,13.3427618,74.7502906,Udupi,Karnataka,India,,,,"{'air_conditioning': 'yes', 'check_date': '2023-09-19', 'fee': 'no', 'internet_access': 'no', 'name': 'Corporation Bank Heritage Museum', 'source': 'survey', 'tourism': 'museum'}"
11214889006,Dr BR Ambedkar,12.9721333,77.6071503,Bengaluru,Karnataka,India,,,,"{'historic': 'memorial', 'material': 'metal', 'memorial': 'bust', 'name': 'Dr BR Ambedkar', 'subject': 'Dr. B. R. Ambedkar', 'subject:wikidata': 'Q231690'}"
11281329857,Nadaprabhu Sri Kempegowda,12.9787383,77.5913043,Bengaluru,Karnataka,India,,,,"{'historic': 'memorial', 'memorial': 'statue', 'name': 'Nadaprabhu Sri Kempegowda', 'subject': 'Kempegowda', 'subject:wikidata': 'Q6387049'}"
11281329858,Sri Basaveshwara,12.9791383,77.5916987,Bengaluru,Karnataka,India,,,,"{'historic': 'memorial', 'memorial': 'statue', 'name': 'Sri Basaveshwara', 'subject': 'Basavanna'}"
11281329863,Jawaharlal Nehru,12.9784614,77.5910229,Bengaluru,Karnataka,India,,,,"{'historic': 'memorial', 'memorial': 'statue', 'name': 'Jawaharlal Nehru', 'name:kn': 'ಜವಹರಲಾಲ್ ನೆಹರೂ', 'subject': 'Jawaharlal Nehru', 'subject:wikidata': 'Q1047'}"
11295254832,NIMHANS Heritage Museum,12.9399469,77.5951106,Bengaluru,Karnataka,India,,,,"{'check_date': '2024-09-07', 'museum': 'local_history', 'name': 'NIMHANS Heritage Museum', 'opening_hours': 'Mo-Fr 09:00-16:30', 'operator:type': 'government', 'tourism': 'museum'}"
11471929579,Wood Museum and Interpretation Centre,13.0133099,77.5707878,Bengaluru,Karnataka,India,,,,"{'check_date': '2023-12-31', 'fee': 'no', 'level': '1', 'museum': 'science', 'name': 'Wood Museum and Interpretation Centre', 'operator': 'IWST', 'operator:type': 'public', 'tourism': 'museum', 'website': 'https://iwst.icfre.gov.in/museum.htm'}"
11471931588,Agricultural Science Museum,13.0736184,77.5916301,Bengaluru,Karnataka,India,,,,"{'check_date': '2023-12-31', 'museum': 'science', 'name': 'Agricultural Science Museum', 'operator': 'UAS', 'operator:type': 'public', 'tourism': 'museum', 'website': 'https://www.uasbangalore.edu.in/index.php/agricultural-museum'}"
11508687652,Netaji Subhash Chandra Bose,12.9803041,77.589034,Bengaluru,Karnataka,India,,,,"{'historic': 'memorial', 'material': 'metal', 'memorial': 'statue', 'name': 'Netaji Subhash Chandra Bose', 'subject': 'Subhas Chandra Bose', 'subject:wikidata': 'Q2153'}"
11553723791,Shabari Cave,15.3574458,76.4766723,,Karnataka,India,,,,"{'name': 'Shabari Cave', 'natural': 'cave_entrance', 'tourism': 'attraction'}"
11566356796,Field Marshal Sam Manekshaw,12.9774878,77.6073907,Bengaluru,Karnataka,India,,,,"{'height': '6', 'historic': 'memorial', 'material': 'iron', 'memorial': 'statue', 'name': 'Field Marshal Sam Manekshaw', 'subject': 'Field Marshal Sam Manekshaw', 'subject:wikidata': 'Q558194'}"
11570069963,Mahatma Gandhi Statue,16.0953022,75.306253,Salapur,Karnataka,IN,,"To commemorate Mahatma Gandhi. Local community gathers here on various social occasions, especially on Independence Day and Republic Day. This area is known as Gandhi Circle and used for reference to Salapur Bus Stop.",,"{'addr:city': 'Salapur', 'addr:country': 'IN', 'addr:district': 'Belagavi', 'addr:place': 'Mahatma Gandhi Circle', 'addr:postcode': '591123', 'addr:state': 'Karnataka', 'description': 'To commemorate Mahatma Gandhi. Local community gathers here on various social occasions, especially on Independence Day and Republic Day. This area is known as Gandhi Circle and used for reference to Salapur Bus Stop.', 'historic': 'memorial', 'material': 'stone', 'memorial': 'bust', 'name': 'Mahatma Gandhi Statue'}"
11575804879,Prehistoric Cave Paintings,15.3584461,76.4751756,,Karnataka,India,,,,"{'name': 'Prehistoric Cave Paintings', 'natural': 'cave_entrance', 'tourism': 'attraction'}"
11609984369,Chariot,14.54355,74.3176163,,Karnataka,India,,,,"{'name': 'Chariot', 'tourism': 'attraction'}"
11648718431,Nadaprabhu Kempegowda Statue,13.0436723,77.5915405,Bengaluru,Karnataka,India,,,,"{'artist': 'Srinivas', 'height': '5', 'historic': 'memorial', 'material': 'bronze', 'memorial': 'statue', 'name': 'Nadaprabhu Kempegowda Statue', 'source': 'https://www.deccanherald.com/india/karnataka/bengaluru/kempegowda-statue-unveiled-near-hebbal-1927275', 'start_date': '2018', 'subject': 'Nadaprabhu Kempegowda', 'subject:wikidata': 'Q6387049'}"
11655341948,Raman Museum,13.0128369,77.5807741,Bengaluru,Karnataka,India,,,,"{'name': 'Raman Museum', 'tourism': 'museum'}"
11659633762,Sir Mokshagundam Visvesvaraya,12.9939515,77.5932056,Bengaluru,Karnataka,India,,,,"{'historic': 'memorial', 'material': 'metal', 'memorial': 'bust', 'name': 'Sir Mokshagundam Visvesvaraya', 'subject:wikidata': 'Q741700'}"
11680849403,PARSEC - Param Science Experience Centre,12.9274278,77.5792211,Bengaluru,Karnataka,India,32nd Cross Road,,,"{'addr:city': 'Ben', 'addr:country': 'IN', 'addr:hamlet': 'Jayanagar 7th Block', 'addr:housenumber': '27', 'addr:postcode': '560082', 'addr:street': '32nd Cross Road', 'addr:suburb': 'Jayanagar', 'contact:instagram': 'paraminnovation', 'fee': 'yes', 'mobile': '9980625752', 'name': 'PARSEC - Param Science Experience Centre', 'opening_hours': 'Tu-Fr 10:00-18:00, Sa-Su 11:00-19:00', 'operator:type': 'private', 'phone': '7338580197', 'start_date': '2024-01-19', 'tourism': 'museum', 'website': 'https://paraminnovation.org/'}"
11704288319,The Largest Tyre of India,12.3132167,76.6518592,Mysuru,Karnataka,India,,,,"{'name': 'The Largest Tyre of India', 'tourism': 'attraction'}"
11704288325,Maharani Saloon,12.3159537,76.6435259,Mysuru,Karnataka,India,,,,"{'name': 'Maharani Saloon', 'tourism': 'attraction'}"
11708776949,V. V. Puram Food Street,12.9513441,77.5774197,Bengaluru,Karnataka,India,,,,"{'name': 'V. V. Puram Food Street', 'tourism': 'attraction'}"
11774110691,"Geological Museum of Minerals, Rocks and Fossils",12.9100722,77.5673297,Bengaluru,Karnataka,India,,,,"{'check_date': '2024-03-31', 'museum': 'science', 'name': 'Geological Museum of Minerals, Rocks and Fossils', 'operator:type': 'government', 'tourism': 'museum'}"
11789306897,Boschi India Experience Centre,12.9460103,77.6044178,Bengaluru,Karnataka,India,,,,"{'name': 'Boschi India Experience Centre', 'tourism': 'museum'}"
11897258667,Tupolev TU142,14.8147957,74.1272771,,Karnataka,India,,,,"{'historic': 'aircraft', 'name': 'Tupolev TU142', 'name:kn': 'ಟುಪೋಲೆವ್-೧೪೨', 'name:ru': 'Самолет', 'tourism': 'attraction'}"
11924620384,DR. BD Jatti Memorial,12.888061,77.4706198,,Karnataka,India,,,,"{'artwork_type': 'stone', 'historic': 'memorial', 'name': 'DR. BD Jatti Memorial', 'tourism': 'artwork'}"
11953501991,"Kattale Basadi, Barkur",13.4701597,74.751922,,Karnataka,India,"Acharbettu road, near Garadi, Hosala Village, Barkurpete, Moodahadu",,,"{'access': 'yes', 'addr:district': 'Udupi', 'addr:postcode': '576210', 'addr:street': 'Acharbettu road, near Garadi, Hosala Village, Barkurpete, Moodahadu', 'historic': 'archaeological_site', 'historic:civilization': 'alupa_dynasty', 'name': 'Kattale Basadi, Barkur', 'name:kn': 'ಪುರಾತನ ಆಳುಪರ ಕತ್ತಲೆ ಬಸದಿ', 'service_times': 'Mo-Su 09:00,17:00'}"
11985225449,Rani Abbakka Tulu Adhyayana Kendra,12.8835053,75.0240211,,Karnataka,India,"B.C Road, Bantwal",,,"{'addr:district': 'Dakshina Kannada', 'addr:postcode': '574219', 'addr:street': 'B.C Road, Bantwal', 'name': 'Rani Abbakka Tulu Adhyayana Kendra', 'name:kn': 'ರಾಣಿ ಅಬ್ಬಕ್ಕ ತುಳು ಅಧ್ಯಯನ ಕೇಂದ್ರ', 'opening_hours': 'Mo-Sa 09:00-17:00', 'tourism': 'museum'}"
12000106440,Monument Inside Lalbagh,12.9497654,77.5840136,Bengaluru,Karnataka,India,,,,"{'historic': 'monument', 'name': 'Monument Inside Lalbagh'}"
12000235169,Payana Car Museum,12.3898439,76.6680101,,Karnataka,India,,,,"{'check_date': '2024-08-03', 'name': 'Payana Car Museum', 'name:en': 'Payana Car Museum', 'tourism': 'museum'}"
12059144982,J's La Quill Museum,12.9601741,77.5756994,Bengaluru,Karnataka,India,,,,"{'name': ""J's La Quill Museum"", 'opening_hours': '10:00-17:00', 'phone': '+91 98451 86482', 'tourism': 'museum', 'website': 'https://jsquill.com/'}"
12102879362,Museum of Memories,12.9723819,77.6033838,Bengaluru,Karnataka,India,,,,"{'access': 'permissive', 'name': 'Museum of Memories', 'operator': ""St. Joseph's Boys High School"", 'source': 'https://www.deccanherald.com/india/karnataka/bengaluru/fascinating-items-at-st-joseph-s-museum-1208703.html', 'tourism': 'museum'}"
12134185316,Lakshmi Devi,12.9659458,77.5874153,Bengaluru,Karnataka,India,,,,"{'height': '3', 'historic': 'memorial', 'memorial': 'statue', 'name': 'Lakshmi Devi', 'start_date': '2017-09-26'}"
12134185335,First Traffic Signal,12.9654913,77.5867437,Bengaluru,Karnataka,India,,,,"{'historic': 'memorial', 'inscription': 'You are approaching the\nFirst Traffic Signal of\nBengaluru City\nInaugurated by\nSri C. Chandy, IPS\nCommissioner of Police\nwith\nSri B. N. Garudachar, IPS\nDCP Traffic\nIn the year 1963', 'memorial': 'plaque', 'name': 'First Traffic Signal'}"
12137671689,IRD Salappa,12.9664141,77.5880578,Bengaluru,Karnataka,India,,,,"{'historic': 'memorial', 'memorial': 'statue', 'name': 'IRD Salappa'}"
12137671796,Sri Ammebal Subbarao Pai,12.9642551,77.585456,Bengaluru,Karnataka,India,,,,"{'historic': 'memorial', 'memorial': 'statue', 'name': 'Sri Ammebal Subbarao Pai'}"
12138994444,Ramnarayan Chellaram,12.984022,77.5875776,Bengaluru,Karnataka,India,,,,"{'historic': 'memorial', 'memorial': 'bust', 'name': 'Ramnarayan Chellaram'}"
12138994445,Valmiki,12.9827191,77.5891185,Bengaluru,Karnataka,India,,,,"{'historic': 'memorial', 'memorial': 'statue', 'name': 'Valmiki', 'subject:wikidata': 'Q715607'}"
12138994446,Kanakadasa,12.9823009,77.5896603,Bengaluru,Karnataka,India,,,,"{'historic': 'memorial', 'memorial': 'statue', 'name': 'Kanakadasa', 'subject:wikidata': 'Q6360377'}"
12147208911,Bharat Ratna Sir. M. Visvesvaraya,12.9834266,77.5958169,Bengaluru,Karnataka,India,,,,"{'historic': 'memorial', 'memorial': 'statue', 'name': 'Bharat Ratna Sir. M. Visvesvaraya', 'start_date': '2009-09-15', 'subject': 'Sir M. Visvesvaraya', 'subject:wikidata': 'Q741700'}"
12147454694,Statue Of Samskriti,12.9843419,77.5871382,Bengaluru,Karnataka,India,,,,"{'historic': 'memorial', 'memorial': 'statue', 'name': 'Statue Of Samskriti', 'subject': 'Kulapati Dr. K. M. Munshi'}"
12147974357,The Constitution of India,12.9834422,77.5958308,Bengaluru,Karnataka,India,,,,"{'direction': '135', 'historic': 'memorial', 'material': 'stone', 'memorial': 'plaque', 'name': 'The Constitution of India', 'start_date': '2015-01-24'}"
12179532196,Shivaji,15.3320867,74.7668415,,Karnataka,India,,,,"{'historic': 'memorial', 'material': 'metal', 'memorial': 'statue', 'name': 'Shivaji', 'subject': 'Shivaji', 'subject:wikidata': 'Q239505'}"
12201013732,Kundalahalli EPIP Drain and Walkway Inauguration,12.9720294,77.7212526,Bengaluru,Karnataka,India,,,,"{'direction': '10', 'historic': 'memorial', 'inscription': 'Developed and supported by BBMP & GE\nInaugurated by Smt. Shwetha Vijaykumar BBMP CorporatorWard #85, Bengaluru', 'material': 'stone', 'memorial': 'plaque', 'name': 'Kundalahalli EPIP Drain and Walkway Inauguration', 'start_date': '2019-07-26'}"
12281684135,Palkigundu,15.3440463,76.1368243,,Karnataka,India,,,,"{'historic': 'archaeological_site', 'name': 'Palkigundu', 'name:kn': 'ಪಾಲ್ಕಿಗುಂಡು'}"
12291395819,HAZRAT SYED SHAH MURTUZA QUADRI (RA),15.9872695,77.0472207,,Karnataka,India,,,,"{'historic': 'monument', 'name': 'HAZRAT SYED SHAH MURTUZA QUADRI (RA)'}"
12366493014,Sir M Vishweshwaraiah,12.9705467,77.6507425,Bengaluru,Karnataka,India,,,,"{'historic': 'memorial', 'memorial': 'statue', 'name': 'Sir M Vishweshwaraiah', 'name:en': 'Sir M Vishweshwaraiah', 'subject:wikidata': 'Q741700', 'subject:wikipedia': 'en:M. Visvesvaraya'}"
12425915433,Jyoti Vriksh,12.9920385,77.5814145,Bengaluru,Karnataka,India,,,,"{'historic': 'memorial', 'memorial': 'stone', 'name': 'Jyoti Vriksh'}"
12438152842,Nadaprabhu Kempegowda,12.9747968,77.5383435,Bengaluru,Karnataka,India,,,,"{'historic': 'memorial', 'memorial': 'statue', 'name': 'Nadaprabhu Kempegowda'}"
12465191805,Jatinga Rameshwara,14.8500816,76.7905176,,Karnataka,India,,,,"{'amenity': 'place_of_worship', 'highway': 'unclassified', 'historic': 'yes', 'name': 'Jatinga Rameshwara', 'name:kn': 'ಜತಿಂಗ ರಾಮೇಶ್ವರ'}"
12495362003,Sir M. Visvesvaraya,12.9517631,77.5769902,Bengaluru,Karnataka,India,,,,"{'historic': 'memorial', 'memorial': 'bust', 'name': 'Sir M. Visvesvaraya', 'subject': 'M. Visvesvaraya', 'subject:wikidata': 'Q741700'}"
12531311311,First Electric Street Lamp Of Asia,12.9943775,77.608966,Bengaluru,Karnataka,India,,,,"{'historic': 'memorial', 'material': 'iron', 'name': 'First Electric Street Lamp Of Asia', 'start_date': '1905'}"
12531311350,Infantry On Tiger Hill Kargil,12.9944317,77.6090256,Bengaluru,Karnataka,India,,,,"{'historic': 'memorial', 'material': 'metal', 'name': 'Infantry On Tiger Hill Kargil'}"
12538079626,Nadadevi Bhuvaneshwari,12.9801793,77.5886645,Bengaluru,Karnataka,India,,,,"{'historic': 'memorial', 'material': 'bronze', 'memorial': 'statue', 'name': 'Nadadevi Bhuvaneshwari', 'subject': 'Bhuvaneshvari', 'subject:wikidata': 'Q2608097'}"
12543983033,Traffic Police Museum,12.9830719,77.5969133,Bengaluru,Karnataka,India,,,,"{'check_date': '2025-01-30', 'name': 'Traffic Police Museum', 'tourism': 'museum'}"
12623939286,Main Gate,12.3367447,76.6185762,Mysuru,Karnataka,India,,,,"{'historic': 'city_gate', 'name': 'Main Gate'}"
12628402455,Koteshankara Gateway,15.3190388,76.4617274,Hosapete,Karnataka,India,,,,"{'access': 'yes', 'historic': 'ruins', 'historic:civilization': 'medieval', 'name': 'Koteshankara Gateway', 'source': 'survey;aerial imagery;local knowledge'}"
12628402456,Tenali Rama Pavilion,15.3224767,76.4696469,Hosapete,Karnataka,India,,,,"{'historic': 'ruins', 'name': 'Tenali Rama Pavilion', 'name:kn': 'ತೆನಾಲಿ ರಾಮ ಮಂಟಪ', 'ruins': 'building'}"
12628423704,Lamp Stand,15.3373684,76.4714534,Hosapete,Karnataka,India,,,,"{'historic': 'stone', 'name': 'Lamp Stand', 'source': 'survey'}"
12633733341,Ruined Temple,15.3347735,76.470363,Hosapete,Karnataka,India,,,,"{'historic': 'archaeological_site', 'name': 'Ruined Temple', 'source': 'survey'}"
12633733390,Small Temple (no-named),15.3322391,76.4712436,Hosapete,Karnataka,India,,,,"{'historic': 'archaeological_site', 'name': 'Small Temple (no-named)', 'source': 'survey'}"
12635314852,Palace Ruins (possibly an ancient guest house),15.3174146,76.4748938,Hosapete,Karnataka,India,,,,"{'historic': 'archaeological_site', 'name': 'Palace Ruins (possibly an ancient guest house)', 'source': 'survey'}"
12635314867,Palace Ruins,15.3172743,76.4747262,Hosapete,Karnataka,India,,,,"{'check_date': '2024-11-16', 'historic': 'archaeological_site', 'name': 'Palace Ruins', 'source': 'survey'}"
12635368958,Upparige Bagilu,15.3160312,76.4777649,Hosapete,Karnataka,India,,,,"{'check_date': '2024-11-16', 'historic': 'city_gate', 'name': 'Upparige Bagilu', 'name:kn': 'ಉಪ್ಪರಿಗೆ ಬಾಗಿಲು', 'source': 'survey'}"
12636049815,Hazrat Khwaja Abul Faiz dargah,17.9026201,77.5379844,Bidar,Karnataka,India,,,,"{'access': 'yes', 'amenity': 'place_of_worship', 'building': 'shrine', 'historic': 'tomb', 'name': 'Hazrat Khwaja Abul Faiz dargah', 'religion': 'muslim', 'tomb': 'yes'}"
12636049816,Hazrat Qutub E Sani dargah,17.9026469,77.5374296,Bidar,Karnataka,India,,,,"{'access': 'yes', 'amenity': 'place_of_worship', 'building': 'shrine', 'historic': 'tomb', 'name': 'Hazrat Qutub E Sani dargah', 'religion': 'muslim'}"
12636049817,Hazrat Bande Ali Shah dargah,17.9004949,77.5346575,Bidar,Karnataka,India,,,,"{'amenity': 'place_of_worship', 'building': 'shrine', 'historic': 'tomb', 'name': 'Hazrat Bande Ali Shah dargah', 'religion': 'muslim'}"
12636049818,Hazrat Syed Shah Badruddin Habeebullah Qadri dargah,17.9111917,77.5364268,Bidar,Karnataka,India,,,,"{'amenity': 'place_of_worship', 'building': 'shrine', 'historic': 'tomb', 'name': 'Hazrat Syed Shah Badruddin Habeebullah Qadri dargah', 'religion': 'muslim', 'tomb': 'yes'}"
12636049819,Shaik Noor Samdani dargah,17.894161,77.546978,Bidar,Karnataka,India,,,,"{'amenity': 'place_of_worship', 'building': 'shrine', 'historic': 'tomb', 'name': 'Shaik Noor Samdani dargah', 'religion': 'muslim'}"
12636049820,Peer Pasha Alvi dargah,17.8934924,77.5465869,Bidar,Karnataka,India,,,,"{'amenity': 'place_of_worship', 'building': 'shrine', 'historic': 'tomb', 'name': 'Peer Pasha Alvi dargah', 'religion': 'muslim'}"
12636049821,Hazrat Multani Pasha Rahmatullah dargah,17.9182085,77.5255394,Bidar,Karnataka,India,,,,"{'amenity': 'place_of_worship', 'building': 'shrine', 'historic': 'tomb', 'name': 'Hazrat Multani Pasha Rahmatullah dargah', 'religion': 'muslim'}"
12636049822,Hazrat Noor Badsha Qadri Rahmatullah dargah,17.9145917,77.5281663,Bidar,Karnataka,India,,,,"{'amenity': 'place_of_worship', 'building': 'shrine', 'historic': 'tomb', 'name': 'Hazrat Noor Badsha Qadri Rahmatullah dargah', 'religion': 'muslim'}"
12636049823,Kunjenasheen Junaidi Al Baghdadi dargah,17.9173881,77.5008995,Bidar,Karnataka,India,,,,"{'amenity': 'place_of_worship', 'building': 'shrine', 'historic': 'tomb', 'name': 'Kunjenasheen Junaidi Al Baghdadi dargah', 'religion': 'muslim'}"
12636049824,Hazrat Syed Sadat Rahmatullah Alaih dargah,17.9285392,77.5092865,Bidar,Karnataka,India,,,,"{'amenity': 'place_of_worship', 'building': 'shrine', 'historic': 'tomb', 'name': 'Hazrat Syed Sadat Rahmatullah Alaih dargah', 'religion': 'muslim'}"
12636049825,Hazrat Syed Khwaja Wali Ullah Hussaini Rahmatullah dargah,17.9282906,77.5007024,Bidar,Karnataka,India,,,,"{'amenity': 'place_of_worship', 'building': 'shrine', 'historic': 'tomb', 'name': 'Hazrat Syed Khwaja Wali Ullah Hussaini Rahmatullah dargah', 'religion': 'muslim'}"
12636049826,Hazrat Dada Peer dargah,17.9274748,77.4952149,Bidar,Karnataka,India,,,,"{'amenity': 'place_of_worship', 'building': 'shrine', 'historic': 'tomb', 'name': 'Hazrat Dada Peer dargah', 'religion': 'muslim'}"
12636049827,Hazrat Maqdoomji Qadri Al Multani dargah,17.9097473,77.5076332,Bidar,Karnataka,India,,,,"{'amenity': 'place_of_worship', 'building': 'shrine', 'historic': 'tomb', 'name': 'Hazrat Maqdoomji Qadri Al Multani dargah', 'religion': 'muslim'}"
12637207026,Sunkada Bagilu,15.3624894,76.4966146,,Karnataka,India,,Ruined Gate,,"{'description': 'Ruined Gate', 'historic': 'ruins', 'name': 'Sunkada Bagilu'}"
12690409521,Sangolli Rayanna Statue,16.0939207,75.3075769,,Karnataka,India,,,,"{'historic': 'memorial', 'material': 'stone', 'memorial': 'statue', 'name': 'Sangolli Rayanna Statue'}"
12690409532,Raja Basavesvara Statue,16.1621913,75.3686793,,Karnataka,India,,,,"{'historic': 'memorial', 'material': 'stone', 'memorial': 'statue', 'name': 'Raja Basavesvara Statue'}"
12690409535,Hemareddy Mallamma Statue,16.0953706,75.3060655,Salapur,Karnataka,IN,,"To commemorate Mahatma Gandhi. Local community gathers here on various social occasions, especially on Independence Day and Republic Day. This area is known as Gandhi Circle and used for reference to Salapur Bus Stop.",,"{'addr:city': 'Salapur', 'addr:country': 'IN', 'addr:district': 'Belagavi', 'addr:place': 'Mahatma Gandhi Circle', 'addr:postcode': '591123', 'addr:state': 'Karnataka', 'description': 'To commemorate Mahatma Gandhi. Local community gathers here on various social occasions, especially on Independence Day and Republic Day. This area is known as Gandhi Circle and used for reference to Salapur Bus Stop.', 'historic': 'memorial', 'material': 'stone', 'memorial': 'bust', 'name': 'Hemareddy Mallamma Statue'}"
12806084901,Big White Silk Tree,12.949976,77.582863,Bengaluru,Karnataka,India,,,,"{'name': 'Big White Silk Tree', 'tourism': 'attraction'}"
